__time,/ackermann_cmd/drive/acceleration,/ackermann_cmd/drive/jerk,/ackermann_cmd/drive/speed,/ackermann_cmd/drive/steering_angle,/ackermann_cmd/drive/steering_angle_velocity,/ackermann_cmd/header/stamp,/commands/motor/speed/data,/commands/servo/position/data,/drive/drive/acceleration,/drive/drive/jerk,/drive/drive/speed,/drive/drive/steering_angle,/drive/drive/steering_angle_velocity,/drive/header/stamp,/odom/header/stamp,/odom/pose/covariance[0;0],/odom/pose/covariance[0;1],/odom/pose/covariance[0;2],/odom/pose/covariance[0;3],/odom/pose/covariance[0;4],/odom/pose/covariance[0;5],/odom/pose/covariance[1;1],/odom/pose/covariance[1;2],/odom/pose/covariance[1;3],/odom/pose/covariance[1;4],/odom/pose/covariance[1;5],/odom/pose/covariance[2;2],/odom/pose/covariance[2;3],/odom/pose/covariance[2;4],/odom/pose/covariance[2;5],/odom/pose/covariance[3;3],/odom/pose/covariance[3;4],/odom/pose/covariance[3;5],/odom/pose/covariance[4;4],/odom/pose/covariance[4;5],/odom/pose/covariance[5;5],/odom/pose/pose/orientation/pitch_deg,/odom/pose/pose/orientation/roll_deg,/odom/pose/pose/orientation/w,/odom/pose/pose/orientation/x,/odom/pose/pose/orientation/y,/odom/pose/pose/orientation/yaw_deg,/odom/pose/pose/orientation/z,/odom/pose/pose/position/x,/odom/pose/pose/position/y,/odom/pose/pose/position/z,/odom/twist/covariance[0;0],/odom/twist/covariance[0;1],/odom/twist/covariance[0;2],/odom/twist/covariance[0;3],/odom/twist/covariance[0;4],/odom/twist/covariance[0;5],/odom/twist/covariance[1;1],/odom/twist/covariance[1;2],/odom/twist/covariance[1;3],/odom/twist/covariance[1;4],/odom/twist/covariance[1;5],/odom/twist/covariance[2;2],/odom/twist/covariance[2;3],/odom/twist/covariance[2;4],/odom/twist/covariance[2;5],/odom/twist/covariance[3;3],/odom/twist/covariance[3;4],/odom/twist/covariance[3;5],/odom/twist/covariance[4;4],/odom/twist/covariance[4;5],/odom/twist/covariance[5;5],/odom/twist/twist/angular/x,/odom/twist/twist/angular/y,/odom/twist/twist/angular/z,/odom/twist/twist/linear/x,/odom/twist/twist/linear/y,/odom/twist/twist/linear/z,/sensors/imu/header/stamp,/sensors/imu/imu/angular_velocity/x,/sensors/imu/imu/angular_velocity/y,/sensors/imu/imu/angular_velocity/z,/sensors/imu/imu/compass/x,/sensors/imu/imu/compass/y,/sensors/imu/imu/compass/z,/sensors/imu/imu/linear_acceleration/x,/sensors/imu/imu/linear_acceleration/y,/sensors/imu/imu/linear_acceleration/z,/sensors/imu/imu/orientation/w,/sensors/imu/imu/orientation/x,/sensors/imu/imu/orientation/y,/sensors/imu/imu/orientation/z,/sensors/imu/imu/ypr/x,/sensors/imu/imu/ypr/y,/sensors/imu/imu/ypr/z,/sensors/servo_position_command/data
1713381386.199312,,,,,,,,,,,,,,,,,,,,,,,,,,,,,,,,,,,,,,,,,,,,,,,,,,,,,,,,,,,,,,,,,,,,,,,,,,1713381386.197436,-5.371094,-2.441406,7.995605,0.000000,0.000000,0.000000,-0.008348,0.036809,1.001973,-0.695605,0.006153,0.013433,-0.718273,1.596441,-0.564336,-91.844871,
1713381386.226716,,,,,,,,,,,,,,,,,,,,,,,,,,,,,,,,,,,,,,,,,,,,,,,,,,,,,,,,,,,,,,,,,,,,,,,,,,1713381386.219477,-16.479492,-4.455566,11.901855,0.000000,0.000000,0.000000,-0.117234,-1.305965,0.454121,-0.694406,0.007778,0.015836,-0.719367,1.924815,-0.619033,-92.033404,
1713381386.227737,,,,,,,,,,,,,,,1713381386.219325,0.200000,0.000000,0.000000,0.000000,0.000000,0.000000,0.200000,0.000000,0.000000,0.000000,0.000000,0.000000,0.000000,0.000000,0.000000,0.000000,0.000000,0.000000,0.000000,0.000000,0.400000,0.000000,0.000000,0.999862,0.000000,0.000000,1.901232,0.016591,0.037094,0.000454,0.000000,0.000000,0.000000,0.000000,0.000000,0.000000,0.000000,0.000000,0.000000,0.000000,0.000000,0.000000,0.000000,0.000000,0.000000,0.000000,0.000000,0.000000,0.000000,0.000000,0.000000,0.000000,0.000000,0.000000,0.698909,0.781360,0.000000,0.000000,,,,,,,,,,,,,,,,,,
1713381386.231580,,,,,,,,,0.000000,0.000000,3.000000,0.220000,0.000000,0.000000,,,,,,,,,,,,,,,,,,,,,,,,,,,,,,,,,,,,,,,,,,,,,,,,,,,,,,,,,,,,,,,,,,,,,,,,,,,,,
1713381386.232103,0.000000,0.000000,3.000000,0.220000,0.000000,0.000000,,,,,,,,,,,,,,,,,,,,,,,,,,,,,,,,,,,,,,,,,,,,,,,,,,,,,,,,,,,,,,,,,,,,,,,,,,,,,,,,,,,,,
1713381386.233300,,,,,,,,0.208320,,,,,,,,,,,,,,,,,,,,,,,,,,,,,,,,,,,,,,,,,,,,,,,,,,,,,,,,,,,,,,,,,,,,,,,,,,,,,,,,,,,
1713381386.236512,,,,,,,,,,,,,,,,,,,,,,,,,,,,,,,,,,,,,,,,,,,,,,,,,,,,,,,,,,,,,,,,,,,,,,,,,,,,,,,,,,,,,,,,,,,0.208320
1713381386.241304,,,,,,,,,,,,,,,,,,,,,,,,,,,,,,,,,,,,,,,,,,,,,,,,,,,,,,,,,,,,,,,,,,,,,,,,,,1713381386.237570,-11.718750,4.089355,9.582520,0.000000,0.000000,0.000000,0.177687,-1.159480,1.266133,-0.693494,0.010559,0.019186,-0.720129,2.423258,-0.653367,-92.172672,
1713381386.241570,,,,,,,,,,,,,,,1713381386.237396,0.200000,0.000000,0.000000,0.000000,0.000000,0.000000,0.200000,0.000000,0.000000,0.000000,0.000000,0.000000,0.000000,0.000000,0.000000,0.000000,0.000000,0.000000,0.000000,0.000000,0.400000,0.000000,0.000000,0.999675,0.000000,0.000000,2.920943,0.025487,0.056980,0.001114,0.000000,0.000000,0.000000,0.000000,0.000000,0.000000,0.000000,0.000000,0.000000,0.000000,0.000000,0.000000,0.000000,0.000000,0.000000,0.000000,0.000000,0.000000,0.000000,0.000000,0.000000,0.000000,0.000000,0.000000,0.984842,1.101025,0.000000,0.000000,,,,,,,,,,,,,,,,,,
1713381386.260694,,,,,,,,,,,,,,,,,,,,,,,,,,,,,,,,,,,,,,,,,,,,,,,,,,,,,,,,,,,,,,,,,,,,,,,,,,1713381386.258278,14.160156,2.075195,6.225586,0.000000,0.000000,0.000000,-0.145066,-0.931941,0.937520,-0.692894,0.011265,0.019019,-0.720700,2.466071,-0.579759,-92.266266,
1713381386.261541,,,,,,,,,,,,,,,1713381386.258134,0.200000,0.000000,0.000000,0.000000,0.000000,0.000000,0.200000,0.000000,0.000000,0.000000,0.000000,0.000000,0.000000,0.000000,0.000000,0.000000,0.000000,0.000000,0.000000,0.000000,0.400000,0.000000,0.000000,0.999261,0.000000,0.000000,4.404742,0.038429,0.085894,0.002590,0.000000,0.000000,0.000000,0.000000,0.000000,0.000000,0.000000,0.000000,0.000000,0.000000,0.000000,0.000000,0.000000,0.000000,0.000000,0.000000,0.000000,0.000000,0.000000,0.000000,0.000000,0.000000,0.000000,0.000000,1.248818,1.396142,0.000000,0.000000,,,,,,,,,,,,,,,,,,
1713381386.274942,,,,,,,,,,,,,,,1713381386.272921,0.200000,0.000000,0.000000,0.000000,0.000000,0.000000,0.200000,0.000000,0.000000,0.000000,0.000000,0.000000,0.000000,0.000000,0.000000,0.000000,0.000000,0.000000,0.000000,0.000000,0.400000,0.000000,0.000000,0.998787,0.000000,0.000000,5.644068,0.049234,0.110005,0.004447,0.000000,0.000000,0.000000,0.000000,0.000000,0.000000,0.000000,0.000000,0.000000,0.000000,0.000000,0.000000,0.000000,0.000000,0.000000,0.000000,0.000000,0.000000,0.000000,0.000000,0.000000,0.000000,0.000000,0.000000,1.462726,1.635285,0.000000,0.000000,,,,,,,,,,,,,,,,,,
1713381386.279275,,,,,,,,,,,,,,,,,,,,,,,,,,,,,,,,,,,,,,,,,,,,,,,,,,,,,,,,,,,,,,,,,,,,,,,,,,1713381386.278296,-4.211426,-8.666992,26.733398,0.000000,0.000000,0.000000,0.139602,-1.002742,0.701191,-0.690556,0.010868,0.020128,-0.722917,2.528435,-0.692418,-92.638429,
1713381386.281953,,,,,,,,,0.000000,0.000000,3.000000,0.220000,0.000000,0.000000,,,,,,,,,,,,,,,,,,,,,,,,,,,,,,,,,,,,,,,,,,,,,,,,,,,,,,,,,,,,,,,,,,,,,,,,,,,,,
1713381386.283356,0.000000,0.000000,3.000000,0.220000,0.000000,0.000000,,,,,,,,,,,,,,,,,,,,,,,,,,,,,,,,,,,,,,,,,,,,,,,,,,,,,,,,,,,,,,,,,,,,,,,,,,,,,,,,,,,,,
1713381386.286405,,,,,,,,0.208320,,,,,,,,,,,,,,,,,,,,,,,,,,,,,,,,,,,,,,,,,,,,,,,,,,,,,,,,,,,,,,,,,,,,,,,,,,,,,,,,,,,
1713381386.288513,,,,,,,22242.000000,,,,,,,,,,,,,,,,,,,,,,,,,,,,,,,,,,,,,,,,,,,,,,,,,,,,,,,,,,,,,,,,,,,,,,,,,,,,,,,,,,,,
1713381386.288901,,,,,,,,,,,,,,,,,,,,,,,,,,,,,,,,,,,,,,,,,,,,,,,,,,,,,,,,,,,,,,,,,,,,,,,,,,,,,,,,,,,,,,,,,,,0.208320
1713381386.303210,,,,,,,,,,,,,,,,,,,,,,,,,,,,,,,,,,,,,,,,,,,,,,,,,,,,,,,,,,,,,,,,,,,,,,,,,,1713381386.300208,-9.155273,11.047363,30.029297,0.000000,0.000000,0.000000,0.123977,-1.221492,1.213398,-0.686859,0.012826,0.021032,-0.726373,2.761299,-0.587822,-93.217377,
1713381386.304046,,,,,,,,,,,,,,,1713381386.299943,0.200000,0.000000,0.000000,0.000000,0.000000,0.000000,0.200000,0.000000,0.000000,0.000000,0.000000,0.000000,0.000000,0.000000,0.000000,0.000000,0.000000,0.000000,0.000000,0.000000,0.400000,0.000000,0.000000,0.997447,0.000000,0.000000,8.190742,0.071417,0.159456,0.009334,0.000000,0.000000,0.000000,0.000000,0.000000,0.000000,0.000000,0.000000,0.000000,0.000000,0.000000,0.000000,0.000000,0.000000,0.000000,0.000000,0.000000,0.000000,0.000000,0.000000,0.000000,0.000000,0.000000,0.000000,1.644903,1.838953,0.000000,0.000000,,,,,,,,,,,,,,,,,,
1713381386.319031,,,,,,,,,,,,,,,,,,,,,,,,,,,,,,,,,,,,,,,,,,,,,,,,,,,,,,,,,,,,,,,,,,,,,,,,,,1713381386.317298,4.150391,-1.220703,31.494141,0.000000,0.000000,0.000000,0.125441,-1.144344,1.181172,-0.682686,0.013936,0.021871,-0.730252,2.921774,-0.544775,-93.870124,
1713381386.320332,,,,,,,,,,,,,,,1713381386.317127,0.200000,0.000000,0.000000,0.000000,0.000000,0.000000,0.200000,0.000000,0.000000,0.000000,0.000000,0.000000,0.000000,0.000000,0.000000,0.000000,0.000000,0.000000,0.000000,0.000000,0.400000,0.000000,0.000000,0.996221,0.000000,0.000000,9.964825,0.086850,0.193719,0.014266,0.000000,0.000000,0.000000,0.000000,0.000000,0.000000,0.000000,0.000000,0.000000,0.000000,0.000000,0.000000,0.000000,0.000000,0.000000,0.000000,0.000000,0.000000,0.000000,0.000000,0.000000,0.000000,0.000000,0.000000,1.801865,2.014432,0.000000,0.000000,,,,,,,,,,,,,,,,,,
1713381386.330602,,,,,,,,,0.000000,0.000000,3.000000,0.220000,0.000000,0.000000,,,,,,,,,,,,,,,,,,,,,,,,,,,,,,,,,,,,,,,,,,,,,,,,,,,,,,,,,,,,,,,,,,,,,,,,,,,,,
1713381386.331126,0.000000,0.000000,3.000000,0.220000,0.000000,0.000000,,,,,,,,,,,,,,,,,,,,,,,,,,,,,,,,,,,,,,,,,,,,,,,,,,,,,,,,,,,,,,,,,,,,,,,,,,,,,,,,,,,,,
1713381386.334598,,,,,,,,0.208320,,,,,,,,,,,,,,,,,,,,,,,,,,,,,,,,,,,,,,,,,,,,,,,,,,,,,,,,,,,,,,,,,,,,,,,,,,,,,,,,,,,
1713381386.334888,,,,,,,22242.000000,,,,,,,,,,,,,,,,,,,,,,,,,,,,,,,,,,,,,,,,,,,,,,,,,,,,,,,,,,,,,,,,,,,,,,,,,,,,,,,,,,,,
1713381386.335499,,,,,,,,,,,,,,,1713381386.331846,0.200000,0.000000,0.000000,0.000000,0.000000,0.000000,0.200000,0.000000,0.000000,0.000000,0.000000,0.000000,0.000000,0.000000,0.000000,0.000000,0.000000,0.000000,0.000000,0.000000,0.400000,0.000000,0.000000,0.994890,0.000000,0.000000,11.589023,0.100961,0.224933,0.019750,0.000000,0.000000,0.000000,0.000000,0.000000,0.000000,0.000000,0.000000,0.000000,0.000000,0.000000,0.000000,0.000000,0.000000,0.000000,0.000000,0.000000,0.000000,0.000000,0.000000,0.000000,0.000000,0.000000,0.000000,1.926010,2.153224,0.000000,0.000000,,,,,,,,,,,,,,,,,,
1713381386.338319,,,,,,,,,,,,,,,,,,,,,,,,,,,,,,,,,,,,,,,,,,,,,,,,,,,,,,,,,,,,,,,,,,,,,,,,,,,,,,,,,,,,,,,,,,,0.208320
1713381386.342038,,,,,,,,,,,,,,,,,,,,,,,,,,,,,,,,,,,,,,,,,,,,,,,,,,,,,,,,,,,,,,,,,,,,,,,,,,1713381386.339067,6.286621,-3.112793,39.001465,0.000000,0.000000,0.000000,-0.062059,-0.888484,0.662617,-0.676899,0.013178,0.021794,-0.735635,2.860670,-0.579678,-94.776647,
1713381386.359561,,,,,,,,,,,,,,,,,,,,,,,,,,,,,,,,,,,,,,,,,,,,,,,,,,,,,,,,,,,,,,,,,,,,,,,,,,1713381386.357618,-3.723145,14.831543,55.236816,0.000000,0.000000,0.000000,0.187453,-0.944637,0.982441,-0.671021,0.014526,0.022391,-0.740958,3.019567,-0.488353,-95.684052,
1713381386.360321,,,,,,,,,,,,,,,1713381386.357481,0.200000,0.000000,0.000000,0.000000,0.000000,0.000000,0.200000,0.000000,0.000000,0.000000,0.000000,0.000000,0.000000,0.000000,0.000000,0.000000,0.000000,0.000000,0.000000,0.000000,0.400000,0.000000,0.000000,0.991913,0.000000,0.000000,14.583684,0.126923,0.282174,0.031488,0.000000,0.000000,0.000000,0.000000,0.000000,0.000000,0.000000,0.000000,0.000000,0.000000,0.000000,0.000000,0.000000,0.000000,0.000000,0.000000,0.000000,0.000000,0.000000,0.000000,0.000000,0.000000,0.000000,0.000000,2.038816,2.279336,0.000000,0.000000,,,,,,,,,,,,,,,,,,
1713381386.378885,,,,,,,,,,,,,,,,,,,,,,,,,,,,,,,,,,,,,,,,,,,,,,,,,,,,,,,,,,,,,,,,,,,,,,,,,,1713381386.377145,2.136230,-15.625000,51.208496,0.000000,0.000000,0.000000,0.105422,-1.162898,1.381367,-0.664742,0.016294,0.022884,-0.746545,3.200626,-0.349260,-96.644472,
1713381386.383650,,,,,,,,,0.000000,0.000000,3.000000,0.220000,0.000000,0.000000,,,,,,,,,,,,,,,,,,,,,,,,,,,,,,,,,,,,,,,,,,,,,,,,,,,,,,,,,,,,,,,,,,,,,,,,,,,,,
1713381386.384073,0.000000,0.000000,3.000000,0.220000,0.000000,0.000000,,,,,,,,,,,,,,,,,,,,,,,,,,,,,,,,,,,,,,,,,,,,,,,,,,,,,,,,,,,,,,,,,,,,,,,,,,,,,,,,,,,,,
1713381386.384413,,,,,,,,0.208320,,,,,,,,,,,,,,,,,,,,,,,,,,,,,,,,,,,,,,,,,,,,,,,,,,,,,,,,,,,,,,,,,,,,,,,,,,,,,,,,,,,
1713381386.384672,,,,,,,,,,,,,,,1713381386.376940,0.200000,0.000000,0.000000,0.000000,0.000000,0.000000,0.200000,0.000000,0.000000,0.000000,0.000000,0.000000,0.000000,0.000000,0.000000,0.000000,0.000000,0.000000,0.000000,0.000000,0.400000,0.000000,0.000000,0.989086,0.000000,0.000000,16.945345,0.147338,0.326771,0.043091,0.000000,0.000000,0.000000,0.000000,0.000000,0.000000,0.000000,0.000000,0.000000,0.000000,0.000000,0.000000,0.000000,0.000000,0.000000,0.000000,0.000000,0.000000,0.000000,0.000000,0.000000,0.000000,0.000000,0.000000,2.118201,2.368087,0.000000,0.000000,,,,,,,,,,,,,,,,,,
1713381386.385744,,,,,,,22242.000000,,,,,,,,,,,,,,,,,,,,,,,,,,,,,,,,,,,,,,,,,,,,,,,,,,,,,,,,,,,,,,,,,,,,,,,,,,,,,,,,,,,,
1713381386.387887,,,,,,,,,,,,,,,,,,,,,,,,,,,,,,,,,,,,,,,,,,,,,,,,,,,,,,,,,,,,,,,,,,,,,,,,,,,,,,,,,,,,,,,,,,,0.208320
1713381386.393664,,,,,,,,,,,,,,,1713381386.391708,0.200000,0.000000,0.000000,0.000000,0.000000,0.000000,0.200000,0.000000,0.000000,0.000000,0.000000,0.000000,0.000000,0.000000,0.000000,0.000000,0.000000,0.000000,0.000000,0.000000,0.400000,0.000000,0.000000,0.986582,0.000000,0.000000,18.792785,0.163264,0.361253,0.053598,0.000000,0.000000,0.000000,0.000000,0.000000,0.000000,0.000000,0.000000,0.000000,0.000000,0.000000,0.000000,0.000000,0.000000,0.000000,0.000000,0.000000,0.000000,0.000000,0.000000,0.000000,0.000000,0.000000,0.000000,2.183471,2.441057,0.000000,0.000000,,,,,,,,,,,,,,,,,,
1713381386.398040,,,,,,,,,,,,,,,,,,,,,,,,,,,,,,,,,,,,,,,,,,,,,,,,,,,,,,,,,,,,,,,,,,,,,,,,,,1713381386.397104,3.967285,-18.981934,65.917969,0.000000,0.000000,0.000000,0.231887,-0.767391,1.023457,-0.655118,0.013531,0.024542,-0.755007,3.140903,-0.671697,-98.122224,
1713381386.418649,,,,,,,,,,,,,,,,,,,,,,,,,,,,,,,,,,,,,,,,,,,,,,,,,,,,,,,,,,,,,,,,,,,,,,,,,,1713381386.416965,-2.746582,17.517090,69.335938,0.000000,0.000000,0.000000,0.478957,-0.518367,0.840352,-0.646712,0.014762,0.024130,-0.762209,3.203374,-0.498887,-99.386718,
1713381386.419312,,,,,,,,,,,,,,,1713381386.416784,0.200000,0.000000,0.000000,0.000000,0.000000,0.000000,0.200000,0.000000,0.000000,0.000000,0.000000,0.000000,0.000000,0.000000,0.000000,0.000000,0.000000,0.000000,0.000000,0.000000,0.400000,0.000000,0.000000,0.981576,0.000000,0.000000,22.031008,0.191075,0.421070,0.073953,0.000000,0.000000,0.000000,0.000000,0.000000,0.000000,0.000000,0.000000,0.000000,0.000000,0.000000,0.000000,0.000000,0.000000,0.000000,0.000000,0.000000,0.000000,0.000000,0.000000,0.000000,0.000000,0.000000,0.000000,2.253809,2.519692,0.000000,0.000000,,,,,,,,,,,,,,,,,,
1713381386.430610,,,,,,,,,0.000000,0.000000,3.000000,0.220000,0.000000,0.000000,,,,,,,,,,,,,,,,,,,,,,,,,,,,,,,,,,,,,,,,,,,,,,,,,,,,,,,,,,,,,,,,,,,,,,,,,,,,,
1713381386.431999,0.000000,0.000000,3.000000,0.220000,0.000000,0.000000,,,,,,,,,,,,,,,,,,,,,,,,,,,,,,,,,,,,,,,,,,,,,,,,,,,,,,,,,,,,,,,,,,,,,,,,,,,,,,,,,,,,,
1713381386.432894,,,,,,,,,,,,,,,,,,,,,,,,,,,,,,,,,,,,,,,,,,,,,,,,,,,,,,,,,,,,,,,,,,,,,,,,,,,,,,,,,,,,,,,,,,,0.208320
1713381386.434050,,,,,,,,0.208320,,,,,,,,,,,,,,,,,,,,,,,,,,,,,,,,,,,,,,,,,,,,,,,,,,,,,,,,,,,,,,,,,,,,,,,,,,,,,,,,,,,
1713381386.434458,,,,,,,22242.000000,,,,,,,,,,,,,,,,,,,,,,,,,,,,,,,,,,,,,,,,,,,,,,,,,,,,,,,,,,,,,,,,,,,,,,,,,,,,,,,,,,,,
1713381386.439381,,,,,,,,,,,,,,,,,,,,,,,,,,,,,,,,,,,,,,,,,,,,,,,,,,,,,,,,,,,,,,,,,,,,,,,,,,1713381386.437438,4.028320,-7.507324,43.579102,0.000000,0.000000,0.000000,0.303176,-0.777156,1.016621,-0.639721,0.015757,0.023506,-0.768086,3.225730,-0.336326,-100.429230,
1713381386.439683,,,,,,,,,,,,,,,1713381386.437291,0.200000,0.000000,0.000000,0.000000,0.000000,0.000000,0.200000,0.000000,0.000000,0.000000,0.000000,0.000000,0.000000,0.000000,0.000000,0.000000,0.000000,0.000000,0.000000,0.000000,0.400000,0.000000,0.000000,0.976768,0.000000,0.000000,24.748693,0.214298,0.470226,0.093844,0.000000,0.000000,0.000000,0.000000,0.000000,0.000000,0.000000,0.000000,0.000000,0.000000,0.000000,0.000000,0.000000,0.000000,0.000000,0.000000,0.000000,0.000000,0.000000,0.000000,0.000000,0.000000,0.000000,0.000000,2.313046,2.585919,0.000000,0.000000,,,,,,,,,,,,,,,,,,
1713381386.459028,,,,,,,,,,,,,,,,,,,,,,,,,,,,,,,,,,,,,,,,,,,,,,,,,,,,,,,,,,,,,,,,,,,,,,,,,,1713381386.457447,-5.371094,-10.131836,69.030762,0.000000,0.000000,0.000000,0.348586,-0.598445,1.008320,-0.629547,0.013887,0.025192,-0.776430,3.245182,-0.581826,-101.944617,
1713381386.459638,,,,,,,,,,,,,,,1713381386.457276,0.200000,0.000000,0.000000,0.000000,0.000000,0.000000,0.200000,0.000000,0.000000,0.000000,0.000000,0.000000,0.000000,0.000000,0.000000,0.000000,0.000000,0.000000,0.000000,0.000000,0.400000,0.000000,0.000000,0.971465,0.000000,0.000000,27.440479,0.237181,0.517925,0.115832,0.000000,0.000000,0.000000,0.000000,0.000000,0.000000,0.000000,0.000000,0.000000,0.000000,0.000000,0.000000,0.000000,0.000000,0.000000,0.000000,0.000000,0.000000,0.000000,0.000000,0.000000,0.000000,0.000000,0.000000,2.350809,2.628136,0.000000,0.000000,,,,,,,,,,,,,,,,,,
1713381386.474023,,,,,,,,,,,,,,,1713381386.472031,0.200000,0.000000,0.000000,0.000000,0.000000,0.000000,0.200000,0.000000,0.000000,0.000000,0.000000,0.000000,0.000000,0.000000,0.000000,0.000000,0.000000,0.000000,0.000000,0.000000,0.400000,0.000000,0.000000,0.967142,0.000000,0.000000,29.456818,0.254238,0.552842,0.133962,0.000000,0.000000,0.000000,0.000000,0.000000,0.000000,0.000000,0.000000,0.000000,0.000000,0.000000,0.000000,0.000000,0.000000,0.000000,0.000000,0.000000,0.000000,0.000000,0.000000,0.000000,0.000000,0.000000,0.000000,2.385073,2.666442,0.000000,0.000000,,,,,,,,,,,,,,,,,,
1713381386.479637,,,,,,,,,,,,,,,,,,,,,,,,,,,,,,,,,,,,,,,,,,,,,,,,,,,,,,,,,,,,,,,,,,,,,,,,,,1713381386.477476,-14.160156,27.282715,62.255859,0.000000,0.000000,0.000000,0.215773,-0.579891,1.279805,-0.620836,0.017610,0.024667,-0.783354,3.469186,-0.174106,-103.209083,
1713381386.480539,,,,,,,,,0.000000,0.000000,3.000000,0.220000,0.000000,0.000000,,,,,,,,,,,,,,,,,,,,,,,,,,,,,,,,,,,,,,,,,,,,,,,,,,,,,,,,,,,,,,,,,,,,,,,,,,,,,
1713381386.481451,0.000000,0.000000,3.000000,0.220000,0.000000,0.000000,,,,,,,,,,,,,,,,,,,,,,,,,,,,,,,,,,,,,,,,,,,,,,,,,,,,,,,,,,,,,,,,,,,,,,,,,,,,,,,,,,,,,
1713381386.484604,,,,,,,,0.208320,,,,,,,,,,,,,,,,,,,,,,,,,,,,,,,,,,,,,,,,,,,,,,,,,,,,,,,,,,,,,,,,,,,,,,,,,,,,,,,,,,,
1713381386.485441,,,,,,,22242.000000,,,,,,,,,,,,,,,,,,,,,,,,,,,,,,,,,,,,,,,,,,,,,,,,,,,,,,,,,,,,,,,,,,,,,,,,,,,,,,,,,,,,
1713381386.485870,,,,,,,,,,,,,,,,,,,,,,,,,,,,,,,,,,,,,,,,,,,,,,,,,,,,,,,,,,,,,,,,,,,,,,,,,,,,,,,,,,,,,,,,,,,0.208320
1713381386.495607,,,,,,,,,,,,,,,1713381386.493359,0.200000,0.000000,0.000000,0.000000,0.000000,0.000000,0.200000,0.000000,0.000000,0.000000,0.000000,0.000000,0.000000,0.000000,0.000000,0.000000,0.000000,0.000000,0.000000,0.000000,0.400000,0.000000,0.000000,0.960259,0.000000,0.000000,32.414335,0.279111,0.603090,0.162341,0.000000,0.000000,0.000000,0.000000,0.000000,0.000000,0.000000,0.000000,0.000000,0.000000,0.000000,0.000000,0.000000,0.000000,0.000000,0.000000,0.000000,0.000000,0.000000,0.000000,0.000000,0.000000,0.000000,0.000000,2.420181,2.705692,0.000000,0.000000,,,,,,,,,,,,,,,,,,
1713381386.499628,,,,,,,,,,,,,,,,,,,,,,,,,,,,,,,,,,,,,,,,,,,,,,,,,,,,,,,,,,,,,,,,,,,,,,,,,,1713381386.498852,6.225586,-17.639160,78.247070,0.000000,0.000000,0.000000,0.375441,-0.518367,0.950703,-0.611412,0.017722,0.024843,-0.790724,3.494890,-0.134727,-104.579465,
1713381386.513830,,,,,,,,,,,,,,,1713381386.512058,0.200000,0.000000,0.000000,0.000000,0.000000,0.000000,0.200000,0.000000,0.000000,0.000000,0.000000,0.000000,0.000000,0.000000,0.000000,0.000000,0.000000,0.000000,0.000000,0.000000,0.400000,0.000000,0.000000,0.953598,0.000000,0.000000,35.045315,0.301083,0.646427,0.189860,0.000000,0.000000,0.000000,0.000000,0.000000,0.000000,0.000000,0.000000,0.000000,0.000000,0.000000,0.000000,0.000000,0.000000,0.000000,0.000000,0.000000,0.000000,0.000000,0.000000,0.000000,0.000000,0.000000,0.000000,2.455651,2.745347,0.000000,0.000000,,,,,,,,,,,,,,,,,,
1713381386.519312,,,,,,,,,,,,,,,,,,,,,,,,,,,,,,,,,,,,,,,,,,,,,,,,,,,,,,,,,,,,,,,,,,,,,,,,,,1713381386.517530,-12.084961,-15.441895,76.232910,0.000000,0.000000,0.000000,1.031203,-0.262508,0.813984,-0.598310,0.013340,0.028066,-0.800662,3.492091,-0.700286,-106.482055,
1713381386.530367,,,,,,,,,0.000000,0.000000,3.000000,0.220000,0.000000,0.000000,,,,,,,,,,,,,,,,,,,,,,,,,,,,,,,,,,,,,,,,,,,,,,,,,,,,,,,,,,,,,,,,,,,,,,,,,,,,,
1713381386.531735,0.000000,0.000000,3.000000,0.220000,0.000000,0.000000,,,,,,,,,,,,,,,,,,,,,,,,,,,,,,,,,,,,,,,,,,,,,,,,,,,,,,,,,,,,,,,,,,,,,,,,,,,,,,,,,,,,,
1713381386.532595,,,,,,,,0.208320,,,,,,,,,,,,,,,,,,,,,,,,,,,,,,,,,,,,,,,,,,,,,,,,,,,,,,,,,,,,,,,,,,,,,,,,,,,,,,,,,,,
1713381386.533140,,,,,,,22242.000000,,,,,,,,,,,,,,,,,,,,,,,,,,,,,,,,,,,,,,,,,,,,,,,,,,,,,,,,,,,,,,,,,,,,,,,,,,,,,,,,,,,,
1713381386.533513,,,,,,,,,,,,,,,,,,,,,,,,,,,,,,,,,,,,,,,,,,,,,,,,,,,,,,,,,,,,,,,,,,,,,,,,,,,,,,,,,,,,,,,,,,,0.208320
1713381386.538205,,,,,,,,,,,,,,,,,,,,,,,,,,,,,,,,,,,,,,,,,,,,,,,,,,,,,,,,,,,,,,,,,,,,,,,,,,1713381386.537036,-5.859375,9.704590,75.317383,0.000000,0.000000,0.000000,0.446242,-0.309383,1.305684,-0.588214,0.015916,0.029695,-0.808003,3.825260,-0.527874,-107.909469,
1713381386.539176,,,,,,,,,,,,,,,1713381386.536895,0.200000,0.000000,0.000000,0.000000,0.000000,0.000000,0.200000,0.000000,0.000000,0.000000,0.000000,0.000000,0.000000,0.000000,0.000000,0.000000,0.000000,0.000000,0.000000,0.000000,0.400000,0.000000,0.000000,0.943850,0.000000,0.000000,38.583043,0.330375,0.702941,0.229498,0.000000,0.000000,0.000000,0.000000,0.000000,0.000000,0.000000,0.000000,0.000000,0.000000,0.000000,0.000000,0.000000,0.000000,0.000000,0.000000,0.000000,0.000000,0.000000,0.000000,0.000000,0.000000,0.000000,0.000000,2.486054,2.779336,0.000000,0.000000,,,,,,,,,,,,,,,,,,
1713381386.553298,,,,,,,,,,,,,,,1713381386.551644,0.200000,0.000000,0.000000,0.000000,0.000000,0.000000,0.200000,0.000000,0.000000,0.000000,0.000000,0.000000,0.000000,0.000000,0.000000,0.000000,0.000000,0.000000,0.000000,0.000000,0.400000,0.000000,0.000000,0.937572,0.000000,0.000000,40.704517,0.347791,0.735300,0.255314,0.000000,0.000000,0.000000,0.000000,0.000000,0.000000,0.000000,0.000000,0.000000,0.000000,0.000000,0.000000,0.000000,0.000000,0.000000,0.000000,0.000000,0.000000,0.000000,0.000000,0.000000,0.000000,0.000000,0.000000,2.510425,2.806582,0.000000,0.000000,,,,,,,,,,,,,,,,,,
1713381386.558054,,,,,,,,,,,,,,,,,,,,,,,,,,,,,,,,,,,,,,,,,,,,,,,,,,,,,,,,,,,,,,,,,,,,,,,,,,1713381386.557031,18.249512,-7.568359,83.618164,0.000000,0.000000,0.000000,0.389113,-0.098445,1.035664,-0.577940,0.015383,0.029770,-0.815391,3.803349,-0.534263,-109.360584,
1713381386.574225,,,,,,,,,,,,,,,1713381386.572290,0.200000,0.000000,0.000000,0.000000,0.000000,0.000000,0.200000,0.000000,0.000000,0.000000,0.000000,0.000000,0.000000,0.000000,0.000000,0.000000,0.000000,0.000000,0.000000,0.000000,0.400000,0.000000,0.000000,0.928163,0.000000,0.000000,43.699508,0.372174,0.779602,0.293425,0.000000,0.000000,0.000000,0.000000,0.000000,0.000000,0.000000,0.000000,0.000000,0.000000,0.000000,0.000000,0.000000,0.000000,0.000000,0.000000,0.000000,0.000000,0.000000,0.000000,0.000000,0.000000,0.000000,0.000000,2.531900,2.830591,0.000000,0.000000,,,,,,,,,,,,,,,,,,
1713381386.578311,,,,,,,,,,,,,,,,,,,,,,,,,,,,,,,,,,,,,,,,,,,,,,,,,,,,,,,,,,,,,,,,,,,,,,,,,,1713381386.577688,-15.869141,18.249512,87.219238,0.000000,0.000000,0.000000,0.876418,-0.060848,0.374043,-0.562469,0.014424,0.029783,-0.826156,3.752065,-0.554157,-111.521942,
1713381386.580369,,,,,,,,,0.000000,0.000000,3.000000,0.220000,0.000000,0.000000,,,,,,,,,,,,,,,,,,,,,,,,,,,,,,,,,,,,,,,,,,,,,,,,,,,,,,,,,,,,,,,,,,,,,,,,,,,,,
1713381386.581789,0.000000,0.000000,3.000000,0.220000,0.000000,0.000000,,,,,,,,,,,,,,,,,,,,,,,,,,,,,,,,,,,,,,,,,,,,,,,,,,,,,,,,,,,,,,,,,,,,,,,,,,,,,,,,,,,,,
1713381386.582215,,,,,,,,0.208320,,,,,,,,,,,,,,,,,,,,,,,,,,,,,,,,,,,,,,,,,,,,,,,,,,,,,,,,,,,,,,,,,,,,,,,,,,,,,,,,,,,
1713381386.582501,,,,,,,22242.000000,,,,,,,,,,,,,,,,,,,,,,,,,,,,,,,,,,,,,,,,,,,,,,,,,,,,,,,,,,,,,,,,,,,,,,,,,,,,,,,,,,,,
1713381386.582770,,,,,,,,,,,,,,,,,,,,,,,,,,,,,,,,,,,,,,,,,,,,,,,,,,,,,,,,,,,,,,,,,,,,,,,,,,,,,,,,,,,,,,,,,,,0.208320
1713381386.598469,,,,,,,,,,,,,,,,,,,,,,,,,,,,,,,,,,,,,,,,,,,,,,,,,,,,,,,,,,,,,,,,,,,,,,,,,,1713381386.596827,-17.150879,-2.990723,93.322754,0.000000,0.000000,0.000000,0.423781,-0.167293,1.298848,-0.550112,0.017301,0.032203,-0.834291,4.173121,-0.375988,-113.213835,
1713381386.599452,,,,,,,,,,,,,,,1713381386.596657,0.200000,0.000000,0.000000,0.000000,0.000000,0.000000,0.200000,0.000000,0.000000,0.000000,0.000000,0.000000,0.000000,0.000000,0.000000,0.000000,0.000000,0.000000,0.000000,0.000000,0.400000,0.000000,0.000000,0.916145,0.000000,0.000000,47.262238,0.400847,0.829861,0.341453,0.000000,0.000000,0.000000,0.000000,0.000000,0.000000,0.000000,0.000000,0.000000,0.000000,0.000000,0.000000,0.000000,0.000000,0.000000,0.000000,0.000000,0.000000,0.000000,0.000000,0.000000,0.000000,0.000000,0.000000,2.551807,2.852846,0.000000,0.000000,,,,,,,,,,,,,,,,,,
1713381386.616368,,,,,,,,,,,,,,,,,,,,,,,,,,,,,,,,,,,,,,,,,,,,,,,,,,,,,,,,,,,,,,,,,,,,,,,,,,1713381386.612084,8.666992,-2.746582,91.613770,0.000000,0.000000,0.000000,0.439406,-0.153621,1.336445,-0.537626,0.015999,0.031850,-0.842430,4.063824,-0.417695,-114.923998,
1713381386.617107,,,,,,,,,,,,,,,1713381386.611934,0.200000,0.000000,0.000000,0.000000,0.000000,0.000000,0.200000,0.000000,0.000000,0.000000,0.000000,0.000000,0.000000,0.000000,0.000000,0.000000,0.000000,0.000000,0.000000,0.000000,0.400000,0.000000,0.000000,0.908109,0.000000,0.000000,49.509276,0.418733,0.859616,0.373655,0.000000,0.000000,0.000000,0.000000,0.000000,0.000000,0.000000,0.000000,0.000000,0.000000,0.000000,0.000000,0.000000,0.000000,0.000000,0.000000,0.000000,0.000000,0.000000,0.000000,0.000000,0.000000,0.000000,0.000000,2.567250,2.870111,0.000000,0.000000,,,,,,,,,,,,,,,,,,
1713381386.630331,,,,,,,,,0.000000,0.000000,3.000000,0.260000,0.000000,0.000000,,,,,,,,,,,,,,,,,,,,,,,,,,,,,,,,,,,,,,,,,,,,,,,,,,,,,,,,,,,,,,,,,,,,,,,,,,,,,
1713381386.631348,0.000000,0.000000,3.000000,0.260000,0.000000,0.000000,,,,,,,,,,,,,,,,,,,,,,,,,,,,,,,,,,,,,,,,,,,,,,,,,,,,,,,,,,,,,,,,,,,,,,,,,,,,,,,,,,,,,
1713381386.631775,,,,,,,,0.175760,,,,,,,,,,,,,,,,,,,,,,,,,,,,,,,,,,,,,,,,,,,,,,,,,,,,,,,,,,,,,,,,,,,,,,,,,,,,,,,,,,,
1713381386.632063,,,,,,,22242.000000,,,,,,,,,,,,,,,,,,,,,,,,,,,,,,,,,,,,,,,,,,,,,,,,,,,,,,,,,,,,,,,,,,,,,,,,,,,,,,,,,,,,
1713381386.633018,,,,,,,,,,,,,,,,,,,,,,,,,,,,,,,,,,,,,,,,,,,,,,,,,,,,,,,,,,,,,,,,,,,,,,,,,,,,,,,,,,,,,,,,,,,0.175760
1713381386.634150,,,,,,,,,,,,,,,1713381386.632342,0.200000,0.000000,0.000000,0.000000,0.000000,0.000000,0.200000,0.000000,0.000000,0.000000,0.000000,0.000000,0.000000,0.000000,0.000000,0.000000,0.000000,0.000000,0.000000,0.000000,0.400000,0.000000,0.000000,0.894546,0.000000,0.000000,53.099697,0.446976,0.897855,0.418442,0.000000,0.000000,0.000000,0.000000,0.000000,0.000000,0.000000,0.000000,0.000000,0.000000,0.000000,0.000000,0.000000,0.000000,0.000000,0.000000,0.000000,0.000000,0.000000,0.000000,0.000000,0.000000,0.000000,0.000000,3.070550,2.885622,0.000000,0.000000,,,,,,,,,,,,,,,,,,
1713381386.638505,,,,,,,,,,,,,,,,,,,,,,,,,,,,,,,,,,,,,,,,,,,,,,,,,,,,,,,,,,,,,,,,,,,,,,,,,,1713381386.637696,-15.869141,5.737305,101.928711,0.000000,0.000000,0.000000,0.568801,-0.067684,0.767109,-0.519339,0.015995,0.033380,-0.853767,4.221571,-0.421617,-117.391964,
1713381386.653552,,,,,,,,,,,,,,,1713381386.651850,0.200000,0.000000,0.000000,0.000000,0.000000,0.000000,0.200000,0.000000,0.000000,0.000000,0.000000,0.000000,0.000000,0.000000,0.000000,0.000000,0.000000,0.000000,0.000000,0.000000,0.400000,0.000000,0.000000,0.880696,0.000000,0.000000,56.547160,0.473682,0.931806,0.463661,0.000000,0.000000,0.000000,0.000000,0.000000,0.000000,0.000000,0.000000,0.000000,0.000000,0.000000,0.000000,0.000000,0.000000,0.000000,0.000000,0.000000,0.000000,0.000000,0.000000,0.000000,0.000000,0.000000,0.000000,3.084328,2.898570,0.000000,0.000000,,,,,,,,,,,,,,,,,,
1713381386.658112,,,,,,,,,,,,,,,,,,,,,,,,,,,,,,,,,,,,,,,,,,,,,,,,,,,,,,,,,,,,,,,,,,,,,,,,,,1713381386.657257,-2.136230,-12.329102,95.947266,0.000000,0.000000,0.000000,0.329543,-0.164363,1.102559,-0.505443,0.015485,0.035579,-0.861987,4.415814,-0.531130,-119.248396,
1713381386.678187,,,,,,,,,,,,,,,,,,,,,,,,,,,,,,,,,,,,,,,,,,,,,,,,,,,,,,,,,,,,,,,,,,,,,,,,,,1713381386.676731,16.113281,1.708984,93.750000,0.000000,0.000000,0.000000,0.932570,0.056340,0.976582,-0.491692,0.012471,0.035355,-0.869962,4.231354,-0.748819,-121.078408,
1713381386.678800,,,,,,,,,,,,,,,1713381386.676615,0.200000,0.000000,0.000000,0.000000,0.000000,0.000000,0.200000,0.000000,0.000000,0.000000,0.000000,0.000000,0.000000,0.000000,0.000000,0.000000,0.000000,0.000000,0.000000,0.000000,0.400000,0.000000,0.000000,0.861907,0.000000,0.000000,60.937158,0.507066,0.971499,0.523738,0.000000,0.000000,0.000000,0.000000,0.000000,0.000000,0.000000,0.000000,0.000000,0.000000,0.000000,0.000000,0.000000,0.000000,0.000000,0.000000,0.000000,0.000000,0.000000,0.000000,0.000000,0.000000,0.000000,0.000000,3.093945,2.907607,0.000000,0.000000,,,,,,,,,,,,,,,,,,
1713381386.680584,,,,,,,,,0.000000,0.000000,3.000000,0.260000,0.000000,0.000000,,,,,,,,,,,,,,,,,,,,,,,,,,,,,,,,,,,,,,,,,,,,,,,,,,,,,,,,,,,,,,,,,,,,,,,,,,,,,
1713381386.681454,0.000000,0.000000,3.000000,0.260000,0.000000,0.000000,,,,,,,,,,,,,,,,,,,,,,,,,,,,,,,,,,,,,,,,,,,,,,,,,,,,,,,,,,,,,,,,,,,,,,,,,,,,,,,,,,,,,
1713381386.681819,,,,,,,,0.175760,,,,,,,,,,,,,,,,,,,,,,,,,,,,,,,,,,,,,,,,,,,,,,,,,,,,,,,,,,,,,,,,,,,,,,,,,,,,,,,,,,,
1713381386.682096,,,,,,,22242.000000,,,,,,,,,,,,,,,,,,,,,,,,,,,,,,,,,,,,,,,,,,,,,,,,,,,,,,,,,,,,,,,,,,,,,,,,,,,,,,,,,,,,
1713381386.682434,,,,,,,,,,,,,,,,,,,,,,,,,,,,,,,,,,,,,,,,,,,,,,,,,,,,,,,,,,,,,,,,,,,,,,,,,,,,,,,,,,,,,,,,,,,0.175760
1713381386.699729,,,,,,,,,,,,,,,,,,,,,,,,,,,,,,,,,,,,,,,,,,,,,,,,,,,,,,,,,,,,,,,,,,,,,,,,,,1713381386.698124,-8.605957,-4.333496,94.970703,0.000000,0.000000,0.000000,0.358352,-0.071590,1.249043,-0.473357,0.015034,0.035012,-0.880046,4.350549,-0.383035,-123.464904,
1713381386.700773,,,,,,,,,,,,,,,1713381386.697966,0.200000,0.000000,0.000000,0.000000,0.000000,0.000000,0.200000,0.000000,0.000000,0.000000,0.000000,0.000000,0.000000,0.000000,0.000000,0.000000,0.000000,0.000000,0.000000,0.000000,0.400000,0.000000,0.000000,0.844640,0.000000,0.000000,64.733169,0.535334,1.001744,0.578161,0.000000,0.000000,0.000000,0.000000,0.000000,0.000000,0.000000,0.000000,0.000000,0.000000,0.000000,0.000000,0.000000,0.000000,0.000000,0.000000,0.000000,0.000000,0.000000,0.000000,0.000000,0.000000,0.000000,0.000000,3.102987,2.916105,0.000000,0.000000,,,,,,,,,,,,,,,,,,
1713381386.713336,,,,,,,,,,,,,,,1713381386.711698,0.200000,0.000000,0.000000,0.000000,0.000000,0.000000,0.200000,0.000000,0.000000,0.000000,0.000000,0.000000,0.000000,0.000000,0.000000,0.000000,0.000000,0.000000,0.000000,0.000000,0.400000,0.000000,0.000000,0.833018,0.000000,0.000000,67.179861,0.553245,1.018874,0.614452,0.000000,0.000000,0.000000,0.000000,0.000000,0.000000,0.000000,0.000000,0.000000,0.000000,0.000000,0.000000,0.000000,0.000000,0.000000,0.000000,0.000000,0.000000,0.000000,0.000000,0.000000,0.000000,0.000000,0.000000,3.109732,2.922444,0.000000,0.000000,,,,,,,,,,,,,,,,,,
1713381386.718882,,,,,,,,,,,,,,,,,,,,,,,,,,,,,,,,,,,,,,,,,,,,,,,,,,,,,,,,,,,,,,,,,,,,,,,,,,1713381386.717109,12.084961,4.089355,95.520020,0.000000,0.000000,0.000000,0.547316,0.025578,1.165059,-0.459365,0.014133,0.034564,-0.887463,4.263022,-0.382145,-125.280641,
1713381386.730442,,,,,,,,,0.000000,0.000000,3.000000,0.260000,0.000000,0.000000,,,,,,,,,,,,,,,,,,,,,,,,,,,,,,,,,,,,,,,,,,,,,,,,,,,,,,,,,,,,,,,,,,,,,,,,,,,,,
1713381386.731958,0.000000,0.000000,3.000000,0.260000,0.000000,0.000000,,,,,,,,,,,,,,,,,,,,,,,,,,,,,,,,,,,,,,,,,,,,,,,,,,,,,,,,,,,,,,,,,,,,,,,,,,,,,,,,,,,,,
1713381386.732825,,,,,,,,0.175760,,,,,,,,,,,,,,,,,,,,,,,,,,,,,,,,,,,,,,,,,,,,,,,,,,,,,,,,,,,,,,,,,,,,,,,,,,,,,,,,,,,
1713381386.733156,,,,,,,22242.000000,,,,,,,,,,,,,,,,,,,,,,,,,,,,,,,,,,,,,,,,,,,,,,,,,,,,,,,,,,,,,,,,,,,,,,,,,,,,,,,,,,,,
1713381386.733744,,,,,,,,,,,,,,,,,,,,,,,,,,,,,,,,,,,,,,,,,,,,,,,,,,,,,,,,,,,,,,,,,,,,,,,,,,,,,,,,,,,,,,,,,,,0.175760
1713381386.734637,,,,,,,,,,,,,,,,,,,,,,,,,,,,,,,,,,,,,,,,,,,,,,,,,,,,,,,,,,,,,,,,,,,,,,,,,,1713381386.732510,15.991211,-6.652832,97.473145,0.000000,0.000000,0.000000,0.283156,0.071477,0.759785,-0.445646,0.011919,0.032513,-0.894539,3.944691,-0.438612,-127.051559,
1713381386.734970,,,,,,,,,,,,,,,1713381386.732349,0.200000,0.000000,0.000000,0.000000,0.000000,0.000000,0.200000,0.000000,0.000000,0.000000,0.000000,0.000000,0.000000,0.000000,0.000000,0.000000,0.000000,0.000000,0.000000,0.000000,0.400000,0.000000,0.000000,0.814804,0.000000,0.000000,70.863987,0.579736,1.042310,0.670150,0.000000,0.000000,0.000000,0.000000,0.000000,0.000000,0.000000,0.000000,0.000000,0.000000,0.000000,0.000000,0.000000,0.000000,0.000000,0.000000,0.000000,0.000000,0.000000,0.000000,0.000000,0.000000,0.000000,0.000000,3.113607,2.926086,0.000000,0.000000,,,,,,,,,,,,,,,,,,
1713381386.754072,,,,,,,,,,,,,,,1713381386.752452,0.200000,0.000000,0.000000,0.000000,0.000000,0.000000,0.200000,0.000000,0.000000,0.000000,0.000000,0.000000,0.000000,0.000000,0.000000,0.000000,0.000000,0.000000,0.000000,0.000000,0.400000,0.000000,0.000000,0.796239,0.000000,0.000000,74.455179,0.604983,1.061619,0.725799,0.000000,0.000000,0.000000,0.000000,0.000000,0.000000,0.000000,0.000000,0.000000,0.000000,0.000000,0.000000,0.000000,0.000000,0.000000,0.000000,0.000000,0.000000,0.000000,0.000000,0.000000,0.000000,0.000000,0.000000,3.117913,2.930132,0.000000,0.000000,,,,,,,,,,,,,,,,,,
1713381386.758837,,,,,,,,,,,,,,,,,,,,,,,,,,,,,,,,,,,,,,,,,,,,,,,,,,,,,,,,,,,,,,,,,,,,,,,,,,1713381386.757823,12.695313,-4.394531,89.416504,0.000000,0.000000,0.000000,0.497023,0.016301,0.908711,-0.431696,0.009636,0.032677,-0.901376,3.855035,-0.621249,-128.838582,
1713381386.778451,,,,,,,,,,,,,,,,,,,,,,,,,,,,,,,,,,,,,,,,,,,,,,,,,,,,,,,,,,,,,,,,,,,,,,,,,,1713381386.772276,8.972168,11.718750,87.890625,0.000000,0.000000,0.000000,0.783645,0.035344,1.193867,-0.413108,0.006852,0.030710,-0.910138,3.529730,-0.739191,-131.196541,
1713381386.779442,,,,,,,,,,,,,,,1713381386.771924,0.200000,0.000000,0.000000,0.000000,0.000000,0.000000,0.200000,0.000000,0.000000,0.000000,0.000000,0.000000,0.000000,0.000000,0.000000,0.000000,0.000000,0.000000,0.000000,0.000000,0.400000,0.000000,0.000000,0.777497,0.000000,0.000000,77.936008,0.628886,1.076920,0.780803,0.000000,0.000000,0.000000,0.000000,0.000000,0.000000,0.000000,0.000000,0.000000,0.000000,0.000000,0.000000,0.000000,0.000000,0.000000,0.000000,0.000000,0.000000,0.000000,0.000000,0.000000,0.000000,0.000000,0.000000,3.119922,2.932021,0.000000,0.000000,,,,,,,,,,,,,,,,,,
1713381386.780616,,,,,,,,,0.000000,0.000000,3.000000,0.260000,0.000000,0.000000,,,,,,,,,,,,,,,,,,,,,,,,,,,,,,,,,,,,,,,,,,,,,,,,,,,,,,,,,,,,,,,,,,,,,,,,,,,,,
1713381386.782390,0.000000,0.000000,3.000000,0.260000,0.000000,0.000000,,,,,,,,,,,,,,,,,,,,,,,,,,,,,,,,,,,,,,,,,,,,,,,,,,,,,,,,,,,,,,,,,,,,,,,,,,,,,,,,,,,,,
1713381386.783272,,,,,,,,0.175760,,,,,,,,,,,,,,,,,,,,,,,,,,,,,,,,,,,,,,,,,,,,,,,,,,,,,,,,,,,,,,,,,,,,,,,,,,,,,,,,,,,
1713381386.783839,,,,,,,22242.000000,,,,,,,,,,,,,,,,,,,,,,,,,,,,,,,,,,,,,,,,,,,,,,,,,,,,,,,,,,,,,,,,,,,,,,,,,,,,,,,,,,,,
1713381386.784279,,,,,,,,,,,,,,,,,,,,,,,,,,,,,,,,,,,,,,,,,,,,,,,,,,,,,,,,,,,,,,,,,,,,,,,,,,,,,,,,,,,,,,,,,,,0.175760
1713381386.798137,,,,,,,,,,,,,,,,,,,,,,,,,,,,,,,,,,,,,,,,,,,,,,,,,,,,,,,,,,,,,,,,,,,,,,,,,,1713381386.796905,3.723145,15.991211,91.674805,0.000000,0.000000,0.000000,0.110305,-0.008113,1.329609,-0.399267,0.010086,0.028530,-0.916335,3.459390,-0.246281,-132.919812,
1713381386.798831,,,,,,,,,,,,,,,1713381386.796764,0.200000,0.000000,0.000000,0.000000,0.000000,0.000000,0.200000,0.000000,0.000000,0.000000,0.000000,0.000000,0.000000,0.000000,0.000000,0.000000,0.000000,0.000000,0.000000,0.000000,0.400000,0.000000,0.000000,0.752536,0.000000,0.000000,82.378936,0.658551,1.092150,0.852067,0.000000,0.000000,0.000000,0.000000,0.000000,0.000000,0.000000,0.000000,0.000000,0.000000,0.000000,0.000000,0.000000,0.000000,0.000000,0.000000,0.000000,0.000000,0.000000,0.000000,0.000000,0.000000,0.000000,0.000000,3.121788,2.933774,0.000000,0.000000,,,,,,,,,,,,,,,,,,
1713381386.818360,,,,,,,,,,,,,,,,,,,,,,,,,,,,,,,,,,,,,,,,,,,,,,,,,,,,,,,,,,,,,,,,,,,,,,,,,,1713381386.817060,17.211914,2.807617,101.745605,0.000000,0.000000,0.000000,0.031691,0.009953,0.784688,-0.384483,0.009779,0.025377,-0.922732,3.115631,-0.084044,-134.761381,
1713381386.818873,,,,,,,,,,,,,,,1713381386.816884,0.200000,0.000000,0.000000,0.000000,0.000000,0.000000,0.200000,0.000000,0.000000,0.000000,0.000000,0.000000,0.000000,0.000000,0.000000,0.000000,0.000000,0.000000,0.000000,0.000000,0.400000,0.000000,0.000000,0.731471,0.000000,0.000000,85.980245,0.681872,1.099984,0.910615,0.000000,0.000000,0.000000,0.000000,0.000000,0.000000,0.000000,0.000000,0.000000,0.000000,0.000000,0.000000,0.000000,0.000000,0.000000,0.000000,0.000000,0.000000,0.000000,0.000000,0.000000,0.000000,0.000000,0.000000,3.123941,2.935797,0.000000,0.000000,,,,,,,,,,,,,,,,,,
1713381386.830156,,,,,,,,,0.000000,0.000000,3.000000,0.260000,0.000000,0.000000,,,,,,,,,,,,,,,,,,,,,,,,,,,,,,,,,,,,,,,,,,,,,,,,,,,,,,,,,,,,,,,,,,,,,,,,,,,,,
1713381386.830731,0.000000,0.000000,3.000000,0.260000,0.000000,0.000000,,,,,,,,,,,,,,,,,,,,,,,,,,,,,,,,,,,,,,,,,,,,,,,,,,,,,,,,,,,,,,,,,,,,,,,,,,,,,,,,,,,,,
1713381386.831730,,,,,,,22242.000000,,,,,,,,,,,,,,,,,,,,,,,,,,,,,,,,,,,,,,,,,,,,,,,,,,,,,,,,,,,,,,,,,,,,,,,,,,,,,,,,,,,,
1713381386.832275,,,,,,,,,,,,,,,,,,,,,,,,,,,,,,,,,,,,,,,,,,,,,,,,,,,,,,,,,,,,,,,,,,,,,,,,,,,,,,,,,,,,,,,,,,,0.175760
1713381386.832589,,,,,,,,0.175760,,,,,,,,,,,,,,,,,,,,,,,,,,,,,,,,,,,,,,,,,,,,,,,,,,,,,,,,,,,,,,,,,,,,,,,,,,,,,,,,,,,
1713381386.837886,,,,,,,,,,,,,,,,,,,,,,,,,,,,,,,,,,,,,,,,,,,,,,,,,,,,,,,,,,,,,,,,,,,,,,,,,,1713381386.836927,-7.080078,4.943848,106.811523,0.000000,0.000000,0.000000,0.359328,-0.162898,1.258320,-0.363609,0.009632,0.025027,-0.931166,3.073225,-0.015023,-137.340269,
1713381386.838806,,,,,,,,,,,,,,,1713381386.836780,0.200000,0.000000,0.000000,0.000000,0.000000,0.000000,0.200000,0.000000,0.000000,0.000000,0.000000,0.000000,0.000000,0.000000,0.000000,0.000000,0.000000,0.000000,0.000000,0.000000,0.400000,0.000000,0.000000,0.709915,0.000000,0.000000,89.543920,0.704287,1.104082,0.968923,0.000000,0.000000,0.000000,0.000000,0.000000,0.000000,0.000000,0.000000,0.000000,0.000000,0.000000,0.000000,0.000000,0.000000,0.000000,0.000000,0.000000,0.000000,0.000000,0.000000,0.000000,0.000000,0.000000,0.000000,3.126094,2.937820,0.000000,0.000000,,,,,,,,,,,,,,,,,,
1713381386.853918,,,,,,,,,,,,,,,,,,,,,,,,,,,,,,,,,,,,,,,,,,,,,,,,,,,,,,,,,,,,,,,,,,,,,,,,,,1713381386.852178,4.089355,-34.973145,112.060547,0.000000,0.000000,0.000000,0.140578,0.021184,1.157734,-0.347106,0.006626,0.025893,-0.937445,3.046569,-0.318171,-139.372524,
1713381386.854973,,,,,,,,,,,,,,,1713381386.851944,0.200000,0.000000,0.000000,0.000000,0.000000,0.000000,0.200000,0.000000,0.000000,0.000000,0.000000,0.000000,0.000000,0.000000,0.000000,0.000000,0.000000,0.000000,0.000000,0.000000,0.400000,0.000000,0.000000,0.693008,0.000000,0.000000,92.262604,0.720930,1.104437,1.013514,0.000000,0.000000,0.000000,0.000000,0.000000,0.000000,0.000000,0.000000,0.000000,0.000000,0.000000,0.000000,0.000000,0.000000,0.000000,0.000000,0.000000,0.000000,0.000000,0.000000,0.000000,0.000000,0.000000,0.000000,3.129108,2.940653,0.000000,0.000000,,,,,,,,,,,,,,,,,,
1713381386.878289,,,,,,,,,,,,,,,,,,,,,,,,,,,,,,,,,,,,,,,,,,,,,,,,,,,,,,,,,,,,,,,,,,,,,,,,,,1713381386.876851,7.690430,-8.361816,106.262207,0.000000,0.000000,0.000000,0.679641,0.009953,1.232441,-0.330202,0.002462,0.026150,-0.943545,2.922024,-0.723278,-141.442522,
1713381386.878867,,,,,,,,,,,,,,,1713381386.876705,0.200000,0.000000,0.000000,0.000000,0.000000,0.000000,0.200000,0.000000,0.000000,0.000000,0.000000,0.000000,0.000000,0.000000,0.000000,0.000000,0.000000,0.000000,0.000000,0.000000,0.400000,0.000000,0.000000,0.664550,0.000000,0.000000,96.704397,0.747244,1.101560,1.086312,0.000000,0.000000,0.000000,0.000000,0.000000,0.000000,0.000000,0.000000,0.000000,0.000000,0.000000,0.000000,0.000000,0.000000,0.000000,0.000000,0.000000,0.000000,0.000000,0.000000,0.000000,0.000000,0.000000,0.000000,3.130974,2.942406,0.000000,0.000000,,,,,,,,,,,,,,,,,,
1713381386.880300,,,,,,,,,0.000000,0.000000,3.000000,0.260000,0.000000,0.000000,,,,,,,,,,,,,,,,,,,,,,,,,,,,,,,,,,,,,,,,,,,,,,,,,,,,,,,,,,,,,,,,,,,,,,,,,,,,,
1713381386.880777,0.000000,0.000000,3.000000,0.260000,0.000000,0.000000,,,,,,,,,,,,,,,,,,,,,,,,,,,,,,,,,,,,,,,,,,,,,,,,,,,,,,,,,,,,,,,,,,,,,,,,,,,,,,,,,,,,,
1713381386.881494,,,,,,,,0.175760,,,,,,,,,,,,,,,,,,,,,,,,,,,,,,,,,,,,,,,,,,,,,,,,,,,,,,,,,,,,,,,,,,,,,,,,,,,,,,,,,,,
1713381386.881922,,,,,,,22242.000000,,,,,,,,,,,,,,,,,,,,,,,,,,,,,,,,,,,,,,,,,,,,,,,,,,,,,,,,,,,,,,,,,,,,,,,,,,,,,,,,,,,,
1713381386.882325,,,,,,,,,,,,,,,,,,,,,,,,,,,,,,,,,,,,,,,,,,,,,,,,,,,,,,,,,,,,,,,,,,,,,,,,,,,,,,,,,,,,,,,,,,,0.175760
1713381386.899189,,,,,,,,,,,,,,,,,,,,,,,,,,,,,,,,,,,,,,,,,,,,,,,,,,,,,,,,,,,,,,,,,,,,,,,,,,1713381386.897115,13.793945,-3.723145,106.750488,0.000000,0.000000,0.000000,0.615676,0.060246,1.063496,-0.307872,0.002319,0.024123,-0.951119,2.712119,-0.598324,-144.141239,
1713381386.901931,,,,,,,,,,,,,,,1713381386.896956,0.200000,0.000000,0.000000,0.000000,0.000000,0.000000,0.200000,0.000000,0.000000,0.000000,0.000000,0.000000,0.000000,0.000000,0.000000,0.000000,0.000000,0.000000,0.000000,0.000000,0.400000,0.000000,0.000000,0.640518,0.000000,0.000000,100.339089,0.767943,1.094600,1.145521,0.000000,0.000000,0.000000,0.000000,0.000000,0.000000,0.000000,0.000000,0.000000,0.000000,0.000000,0.000000,0.000000,0.000000,0.000000,0.000000,0.000000,0.000000,0.000000,0.000000,0.000000,0.000000,0.000000,0.000000,3.132552,2.943890,0.000000,0.000000,,,,,,,,,,,,,,,,,,
1713381386.913503,,,,,,,,,,,,,,,,,,,,,,,,,,,,,,,,,,,,,,,,,,,,,,,,,,,,,,,,,,,,,,,,,,,,,,,,,,1713381386.912473,2.319336,5.432129,104.675293,0.000000,0.000000,0.000000,0.648391,0.007023,0.853047,-0.291006,0.002748,0.023426,-0.956430,2.660157,-0.480035,-146.165092,
1713381386.914420,,,,,,,,,,,,,,,1713381386.912241,0.200000,0.000000,0.000000,0.000000,0.000000,0.000000,0.200000,0.000000,0.000000,0.000000,0.000000,0.000000,0.000000,0.000000,0.000000,0.000000,0.000000,0.000000,0.000000,0.000000,0.400000,0.000000,0.000000,0.621946,0.000000,0.000000,103.083203,0.783060,1.086522,1.189799,0.000000,0.000000,0.000000,0.000000,0.000000,0.000000,0.000000,0.000000,0.000000,0.000000,0.000000,0.000000,0.000000,0.000000,0.000000,0.000000,0.000000,0.000000,0.000000,0.000000,0.000000,0.000000,0.000000,0.000000,3.133270,2.944564,0.000000,0.000000,,,,,,,,,,,,,,,,,,
1713381386.930559,,,,,,,,,0.000000,0.000000,3.000000,0.260000,0.000000,0.000000,,,,,,,,,,,,,,,,,,,,,,,,,,,,,,,,,,,,,,,,,,,,,,,,,,,,,,,,,,,,,,,,,,,,,,,,,,,,,
1713381386.931897,0.000000,0.000000,3.000000,0.260000,0.000000,0.000000,,,,,,,,,,,,,,,,,,,,,,,,,,,,,,,,,,,,,,,,,,,,,,,,,,,,,,,,,,,,,,,,,,,,,,,,,,,,,,,,,,,,,
1713381386.932859,,,,,,,,0.175760,,,,,,,,,,,,,,,,,,,,,,,,,,,,,,,,,,,,,,,,,,,,,,,,,,,,,,,,,,,,,,,,,,,,,,,,,,,,,,,,,,,
1713381386.933120,,,,,,,22242.000000,,,,,,,,,,,,,,,,,,,,,,,,,,,,,,,,,,,,,,,,,,,,,,,,,,,,,,,,,,,,,,,,,,,,,,,,,,,,,,,,,,,,
1713381386.933661,,,,,,,,,,,,,,,,,,,,,,,,,,,,,,,,,,,,,,,,,,,,,,,,,,,,,,,,,,,,,,,,,,,,,,,,,,,,,,,,,,,,,,,,,,,0.175760
1713381386.933897,,,,,,,,,,,,,,,1713381386.931781,0.200000,0.000000,0.000000,0.000000,0.000000,0.000000,0.200000,0.000000,0.000000,0.000000,0.000000,0.000000,0.000000,0.000000,0.000000,0.000000,0.000000,0.000000,0.000000,0.000000,0.400000,0.000000,0.000000,0.597668,0.000000,0.000000,106.593931,0.801744,1.073487,1.245888,0.000000,0.000000,0.000000,0.000000,0.000000,0.000000,0.000000,0.000000,0.000000,0.000000,0.000000,0.000000,0.000000,0.000000,0.000000,0.000000,0.000000,0.000000,0.000000,0.000000,0.000000,0.000000,0.000000,0.000000,3.135853,2.946992,0.000000,0.000000,,,,,,,,,,,,,,,,,,
1713381386.938539,,,,,,,,,,,,,,,,,,,,,,,,,,,,,,,,,,,,,,,,,,,,,,,,,,,,,,,,,,,,,,,,,,,,,,,,,,1713381386.937151,-38.330078,-45.532227,115.173340,0.000000,0.000000,0.000000,0.953566,-0.129207,1.602559,-0.273723,-0.000598,0.027408,-0.961418,3.002514,-0.925590,-148.240144,
1713381386.957854,,,,,,,,,,,,,,,,,,,,,,,,,,,,,,,,,,,,,,,,,,,,,,,,,,,,,,,,,,,,,,,,,,,,,,,,,,1713381386.956806,20.141602,22.338867,90.637207,0.000000,0.000000,0.000000,0.827102,0.144719,0.315449,-0.253104,0.000134,0.027843,-0.967038,3.091117,-0.792750,-150.687278,
1713381386.958380,,,,,,,,,,,,,,,1713381386.956677,0.200000,0.000000,0.000000,0.000000,0.000000,0.000000,0.200000,0.000000,0.000000,0.000000,0.000000,0.000000,0.000000,0.000000,0.000000,0.000000,0.000000,0.000000,0.000000,0.000000,0.400000,0.000000,0.000000,0.565908,0.000000,0.000000,111.069317,0.824469,1.052524,1.316237,0.000000,0.000000,0.000000,0.000000,0.000000,0.000000,0.000000,0.000000,0.000000,0.000000,0.000000,0.000000,0.000000,0.000000,0.000000,0.000000,0.000000,0.000000,0.000000,0.000000,0.000000,0.000000,0.000000,0.000000,3.137432,2.948476,0.000000,0.000000,,,,,,,,,,,,,,,,,,
1713381386.977122,,,,,,,,,,,,,,,,,,,,,,,,,,,,,,,,,,,,,,,,,,,,,,,,,,,,,,,,,,,,,,,,,,,,,,,,,,1713381386.974060,-16.845703,29.724121,100.341797,0.000000,0.000000,0.000000,1.099563,0.528508,0.626973,-0.238194,0.002456,0.028073,-0.970809,3.191769,-0.493063,-152.442582,
1713381386.977353,,,,,,,,,,,,,,,1713381386.973868,0.200000,0.000000,0.000000,0.000000,0.000000,0.000000,0.200000,0.000000,0.000000,0.000000,0.000000,0.000000,0.000000,0.000000,0.000000,0.000000,0.000000,0.000000,0.000000,0.000000,0.400000,0.000000,0.000000,0.543464,0.000000,0.000000,114.160469,0.839432,1.034297,1.363549,0.000000,0.000000,0.000000,0.000000,0.000000,0.000000,0.000000,0.000000,0.000000,0.000000,0.000000,0.000000,0.000000,0.000000,0.000000,0.000000,0.000000,0.000000,0.000000,0.000000,0.000000,0.000000,0.000000,0.000000,3.138437,2.949420,0.000000,0.000000,,,,,,,,,,,,,,,,,,
1713381386.980355,,,,,,,,,0.000000,0.000000,3.000000,0.260000,0.000000,0.000000,,,,,,,,,,,,,,,,,,,,,,,,,,,,,,,,,,,,,,,,,,,,,,,,,,,,,,,,,,,,,,,,,,,,,,,,,,,,,
1713381386.980864,0.000000,0.000000,3.000000,0.260000,0.000000,0.000000,,,,,,,,,,,,,,,,,,,,,,,,,,,,,,,,,,,,,,,,,,,,,,,,,,,,,,,,,,,,,,,,,,,,,,,,,,,,,,,,,,,,,
1713381386.981550,,,,,,,22242.000000,,,,,,,,,,,,,,,,,,,,,,,,,,,,,,,,,,,,,,,,,,,,,,,,,,,,,,,,,,,,,,,,,,,,,,,,,,,,,,,,,,,,
1713381386.981977,,,,,,,,,,,,,,,,,,,,,,,,,,,,,,,,,,,,,,,,,,,,,,,,,,,,,,,,,,,,,,,,,,,,,,,,,,,,,,,,,,,,,,,,,,,0.175760
1713381386.982251,,,,,,,,0.175760,,,,,,,,,,,,,,,,,,,,,,,,,,,,,,,,,,,,,,,,,,,,,,,,,,,,,,,,,,,,,,,,,,,,,,,,,,,,,,,,,,,
1713381386.998176,,,,,,,,,,,,,,,,,,,,,,,,,,,,,,,,,,,,,,,,,,,,,,,,,,,,,,,,,,,,,,,,,,,,,,,,,,1713381386.996749,-6.958008,-10.437012,105.346680,0.000000,0.000000,0.000000,0.547805,0.014836,0.337910,-0.221630,0.007328,0.032794,-0.974552,3.851319,-0.014532,-154.376195,
1713381386.998674,,,,,,,,,,,,,,,1713381386.996614,0.200000,0.000000,0.000000,0.000000,0.000000,0.000000,0.200000,0.000000,0.000000,0.000000,0.000000,0.000000,0.000000,0.000000,0.000000,0.000000,0.000000,0.000000,0.000000,0.000000,0.400000,0.000000,0.000000,0.513146,0.000000,0.000000,118.252812,0.858301,1.006824,1.424792,0.000000,0.000000,0.000000,0.000000,0.000000,0.000000,0.000000,0.000000,0.000000,0.000000,0.000000,0.000000,0.000000,0.000000,0.000000,0.000000,0.000000,0.000000,0.000000,0.000000,0.000000,0.000000,0.000000,0.000000,3.140016,2.950904,0.000000,0.000000,,,,,,,,,,,,,,,,,,
1713381387.018329,,,,,,,,,,,,,,,,,,,,,,,,,,,,,,,,,,,,,,,,,,,,,,,,,,,,,,,,,,,,,,,,,,,,,,,,,,1713381387.016786,35.034180,-29.235840,101.684570,0.000000,0.000000,0.000000,0.195266,0.043156,1.660176,-0.200510,0.003595,0.032409,-0.979149,3.721598,-0.341278,-156.865048,
1713381387.019135,,,,,,,,,,,,,,,1713381387.016631,0.200000,0.000000,0.000000,0.000000,0.000000,0.000000,0.200000,0.000000,0.000000,0.000000,0.000000,0.000000,0.000000,0.000000,0.000000,0.000000,0.000000,0.000000,0.000000,0.000000,0.400000,0.000000,0.000000,0.485918,0.000000,0.000000,121.854770,0.874005,0.978857,1.476834,0.000000,0.000000,0.000000,0.000000,0.000000,0.000000,0.000000,0.000000,0.000000,0.000000,0.000000,0.000000,0.000000,0.000000,0.000000,0.000000,0.000000,0.000000,0.000000,0.000000,0.000000,0.000000,0.000000,0.000000,3.140733,2.951578,0.000000,0.000000,,,,,,,,,,,,,,,,,,
1713381387.030371,,,,,,,,,0.000000,0.000000,3.000000,0.260000,0.000000,0.000000,,,,,,,,,,,,,,,,,,,,,,,,,,,,,,,,,,,,,,,,,,,,,,,,,,,,,,,,,,,,,,,,,,,,,,,,,,,,,
1713381387.031871,0.000000,0.000000,3.000000,0.260000,0.000000,0.000000,,,,,,,,,,,,,,,,,,,,,,,,,,,,,,,,,,,,,,,,,,,,,,,,,,,,,,,,,,,,,,,,,,,,,,,,,,,,,,,,,,,,,
1713381387.032645,,,,,,,,,,,,,,,,,,,,,,,,,,,,,,,,,,,,,,,,,,,,,,,,,,,,,,,,,,,,,,,,,,,,,,,,,,,,,,,,,,,,,,,,,,,0.175760
1713381387.032947,,,,,,,,0.175760,,,,,,,,,,,,,,,,,,,,,,,,,,,,,,,,,,,,,,,,,,,,,,,,,,,,,,,,,,,,,,,,,,,,,,,,,,,,,,,,,,,
1713381387.033242,,,,,,,22242.000000,,,,,,,,,,,,,,,,,,,,,,,,,,,,,,,,,,,,,,,,,,,,,,,,,,,,,,,,,,,,,,,,,,,,,,,,,,,,,,,,,,,,
1713381387.037652,,,,,,,,,,,,,,,,,,,,,,,,,,,,,,,,,,,,,,,,,,,,,,,,,,,,,,,,,,,,,,,,,,,,,,,,,,1713381387.036839,-4.882813,4.882813,102.416992,0.000000,0.000000,0.000000,0.289016,-0.021297,1.925313,-0.183671,0.001578,0.029349,-0.982548,3.339619,-0.440021,-158.836254,
1713381387.038832,,,,,,,,,,,,,,,1713381387.036607,0.200000,0.000000,0.000000,0.000000,0.000000,0.000000,0.200000,0.000000,0.000000,0.000000,0.000000,0.000000,0.000000,0.000000,0.000000,0.000000,0.000000,0.000000,0.000000,0.000000,0.400000,0.000000,0.000000,0.458287,0.000000,0.000000,125.446720,0.888804,0.947764,1.526876,0.000000,0.000000,0.000000,0.000000,0.000000,0.000000,0.000000,0.000000,0.000000,0.000000,0.000000,0.000000,0.000000,0.000000,0.000000,0.000000,0.000000,0.000000,0.000000,0.000000,0.000000,0.000000,0.000000,0.000000,3.138293,2.949285,0.000000,0.000000,,,,,,,,,,,,,,,,,,
1713381387.059545,,,,,,,,,,,,,,,,,,,,,,,,,,,,,,,,,,,,,,,,,,,,,,,,,,,,,,,,,,,,,,,,,,,,,,,,,,1713381387.056927,-24.597168,-24.475098,115.539551,0.000000,0.000000,0.000000,1.176711,0.031438,1.569355,-0.165074,-0.002214,0.030536,-0.985806,3.409953,-0.827694,-161.012585,
1713381387.059807,,,,,,,,,,,,,,,1713381387.056733,0.200000,0.000000,0.000000,0.000000,0.000000,0.000000,0.200000,0.000000,0.000000,0.000000,0.000000,0.000000,0.000000,0.000000,0.000000,0.000000,0.000000,0.000000,0.000000,0.000000,0.400000,0.000000,0.000000,0.429995,0.000000,0.000000,129.065536,0.902831,0.913340,1.575231,0.000000,0.000000,0.000000,0.000000,0.000000,0.000000,0.000000,0.000000,0.000000,0.000000,0.000000,0.000000,0.000000,0.000000,0.000000,0.000000,0.000000,0.000000,0.000000,0.000000,0.000000,0.000000,0.000000,0.000000,3.138150,2.949150,0.000000,0.000000,,,,,,,,,,,,,,,,,,
1713381387.077946,,,,,,,,,,,,,,,,,,,,,,,,,,,,,,,,,,,,,,,,,,,,,,,,,,,,,,,,,,,,,,,,,,,,,,,,,,1713381387.076877,38.574219,18.859863,93.750000,0.000000,0.000000,0.000000,1.078566,-0.271785,1.640156,-0.142884,0.000152,0.028487,-0.989329,3.233820,-0.449189,-163.576378,
1713381387.078620,,,,,,,,,,,,,,,1713381387.076721,0.200000,0.000000,0.000000,0.000000,0.000000,0.000000,0.200000,0.000000,0.000000,0.000000,0.000000,0.000000,0.000000,0.000000,0.000000,0.000000,0.000000,0.000000,0.000000,0.000000,0.400000,0.000000,0.000000,0.401496,0.000000,0.000000,132.656587,0.915861,0.876220,1.620963,0.000000,0.000000,0.000000,0.000000,0.000000,0.000000,0.000000,0.000000,0.000000,0.000000,0.000000,0.000000,0.000000,0.000000,0.000000,0.000000,0.000000,0.000000,0.000000,0.000000,0.000000,0.000000,0.000000,0.000000,3.135710,2.946857,0.000000,0.000000,,,,,,,,,,,,,,,,,,
1713381387.080550,,,,,,,,,0.000000,0.000000,3.000000,0.260000,0.000000,0.000000,,,,,,,,,,,,,,,,,,,,,,,,,,,,,,,,,,,,,,,,,,,,,,,,,,,,,,,,,,,,,,,,,,,,,,,,,,,,,
1713381387.081438,0.000000,0.000000,3.000000,0.260000,0.000000,0.000000,,,,,,,,,,,,,,,,,,,,,,,,,,,,,,,,,,,,,,,,,,,,,,,,,,,,,,,,,,,,,,,,,,,,,,,,,,,,,,,,,,,,,
1713381387.081834,,,,,,,22242.000000,,,,,,,,,,,,,,,,,,,,,,,,,,,,,,,,,,,,,,,,,,,,,,,,,,,,,,,,,,,,,,,,,,,,,,,,,,,,,,,,,,,,
1713381387.082392,,,,,,,,,,,,,,,,,,,,,,,,,,,,,,,,,,,,,,,,,,,,,,,,,,,,,,,,,,,,,,,,,,,,,,,,,,,,,,,,,,,,,,,,,,,0.175760
1713381387.082788,,,,,,,,0.175760,,,,,,,,,,,,,,,,,,,,,,,,,,,,,,,,,,,,,,,,,,,,,,,,,,,,,,,,,,,,,,,,,,,,,,,,,,,,,,,,,,,
1713381387.098253,,,,,,,,,,,,,,,,,,,,,,,,,,,,,,,,,,,,,,,,,,,,,,,,,,,,,,,,,,,,,,,,,,,,,,,,,,1713381387.096876,21.972656,-31.311035,106.323242,0.000000,0.000000,0.000000,-0.967332,-0.056453,-0.198711,-0.127237,0.002296,0.022424,-0.991616,2.582432,-0.066009,-165.377840,
1713381387.098983,,,,,,,,,,,,,,,1713381387.096728,0.200000,0.000000,0.000000,0.000000,0.000000,0.000000,0.200000,0.000000,0.000000,0.000000,0.000000,0.000000,0.000000,0.000000,0.000000,0.000000,0.000000,0.000000,0.000000,0.000000,0.400000,0.000000,0.000000,0.372602,0.000000,0.000000,136.247645,0.927991,0.836309,1.664281,0.000000,0.000000,0.000000,0.000000,0.000000,0.000000,0.000000,0.000000,0.000000,0.000000,0.000000,0.000000,0.000000,0.000000,0.000000,0.000000,0.000000,0.000000,0.000000,0.000000,0.000000,0.000000,0.000000,0.000000,3.132696,2.944025,0.000000,0.000000,,,,,,,,,,,,,,,,,,
1713381387.118130,,,,,,,,,,,,,,,,,,,,,,,,,,,,,,,,,,,,,,,,,,,,,,,,,,,,,,,,,,,,,,,,,,,,,,,,,,1713381387.116835,-43.762207,-6.408691,115.783691,0.000000,0.000000,0.000000,0.020461,-0.048641,0.708516,-0.107860,-0.000723,0.025125,-0.993848,2.853721,-0.392861,-167.621926,
1713381387.118883,,,,,,,,,,,,,,,1713381387.116699,0.200000,0.000000,0.000000,0.000000,0.000000,0.000000,0.200000,0.000000,0.000000,0.000000,0.000000,0.000000,0.000000,0.000000,0.000000,0.000000,0.000000,0.000000,0.000000,0.000000,0.400000,0.000000,0.000000,0.343370,0.000000,0.000000,139.835378,0.939200,0.793802,1.704976,0.000000,0.000000,0.000000,0.000000,0.000000,0.000000,0.000000,0.000000,0.000000,0.000000,0.000000,0.000000,0.000000,0.000000,0.000000,0.000000,0.000000,0.000000,0.000000,0.000000,0.000000,0.000000,0.000000,0.000000,3.135423,2.946588,0.000000,0.000000,,,,,,,,,,,,,,,,,,
1713381387.135279,,,,,,,,,0.000000,0.000000,3.000000,0.260000,0.000000,0.000000,,,,,,,,,,,,,,,,,,,,,,,,,,,,,,,,,,,,,,,,,,,,,,,,,,,,,,,,,,,,,,,,,,,,,,,,,,,,,
1713381387.136105,0.000000,0.000000,3.000000,0.260000,0.000000,0.000000,,,,,,,,,,,,,,,,,,,,,,,,,,,,,,,,,,,,,,,,,,,,,,,,,,,,,,,,,,,,,,,,,,,,,,,,,,,,,,,,,,,,,
1713381387.136389,,,,,,,,,,,,,,,,,,,,,,,,,,,,,,,,,,,,,,,,,,,,,,,,,,,,,,,,,,,,,,,,,,,,,,,,,,,,,,,,,,,,,,,,,,,0.175760
1713381387.136911,,,,,,,,0.175760,,,,,,,,,,,,,,,,,,,,,,,,,,,,,,,,,,,,,,,,,,,,,,,,,,,,,,,,,,,,,,,,,,,,,,,,,,,,,,,,,,,
1713381387.137128,,,,,,,22242.000000,,,,,,,,,,,,,,,,,,,,,,,,,,,,,,,,,,,,,,,,,,,,,,,,,,,,,,,,,,,,,,,,,,,,,,,,,,,,,,,,,,,,
1713381387.142278,,,,,,,,,,,,,,,,,,,,,,,,,,,,,,,,,,,,,,,,,,,,,,,,,,,,,,,,,,,,,,,,,,,,,,,,,,1713381387.138921,16.845703,-17.211914,96.374512,0.000000,0.000000,0.000000,0.328078,-0.375301,1.641621,-0.084633,-0.000503,0.030106,-0.995957,3.433134,-0.349325,-170.296205,
1713381387.143392,,,,,,,,,,,,,,,1713381387.138771,0.200000,0.000000,0.000000,0.000000,0.000000,0.000000,0.200000,0.000000,0.000000,0.000000,0.000000,0.000000,0.000000,0.000000,0.000000,0.000000,0.000000,0.000000,0.000000,0.000000,0.400000,0.000000,0.000000,0.310661,0.000000,0.000000,143.801818,0.950521,0.744085,1.746937,0.000000,0.000000,0.000000,0.000000,0.000000,0.000000,0.000000,0.000000,0.000000,0.000000,0.000000,0.000000,0.000000,0.000000,0.000000,0.000000,0.000000,0.000000,0.000000,0.000000,0.000000,0.000000,0.000000,0.000000,3.136428,2.947532,0.000000,0.000000,,,,,,,,,,,,,,,,,,
1713381387.158267,,,,,,,,,,,,,,,,,,,,,,,,,,,,,,,,,,,,,,,,,,,,,,,,,,,,,,,,,,,,,,,,,,,,,,,,,,1713381387.156872,43.334961,2.441406,98.144531,0.000000,0.000000,0.000000,0.642043,0.339055,1.163594,-0.069593,-0.000780,0.023885,-0.997289,2.724452,-0.279572,-172.023109,
1713381387.158850,,,,,,,,,,,,,,,1713381387.156696,0.200000,0.000000,0.000000,0.000000,0.000000,0.000000,0.200000,0.000000,0.000000,0.000000,0.000000,0.000000,0.000000,0.000000,0.000000,0.000000,0.000000,0.000000,0.000000,0.000000,0.400000,0.000000,0.000000,0.283823,0.000000,0.000000,147.023038,0.958877,0.701448,1.778140,0.000000,0.000000,0.000000,0.000000,0.000000,0.000000,0.000000,0.000000,0.000000,0.000000,0.000000,0.000000,0.000000,0.000000,0.000000,0.000000,0.000000,0.000000,0.000000,0.000000,0.000000,0.000000,0.000000,0.000000,3.136571,2.947667,0.000000,0.000000,,,,,,,,,,,,,,,,,,
1713381387.177798,,,,,,,,,,,,,,,,,,,,,,,,,,,,,,,,,,,,,,,,,,,,,,,,,,,,,,,,,,,,,,,,,,,,,,,,,,1713381387.176862,-35.949707,-1.464844,100.219727,0.000000,0.000000,0.000000,-0.297410,-0.017879,0.864766,-0.053519,0.003017,0.024999,-0.998249,2.879337,0.191839,-173.857493,
1713381387.178224,,,,,,,,,,,,,,,1713381387.176695,0.200000,0.000000,0.000000,0.000000,0.000000,0.000000,0.200000,0.000000,0.000000,0.000000,0.000000,0.000000,0.000000,0.000000,0.000000,0.000000,0.000000,0.000000,0.000000,0.000000,0.400000,0.000000,0.000000,0.253612,0.000000,0.000000,150.617327,0.967306,0.651992,1.810229,0.000000,0.000000,0.000000,0.000000,0.000000,0.000000,0.000000,0.000000,0.000000,0.000000,0.000000,0.000000,0.000000,0.000000,0.000000,0.000000,0.000000,0.000000,0.000000,0.000000,0.000000,0.000000,0.000000,0.000000,3.136715,2.947801,0.000000,0.000000,,,,,,,,,,,,,,,,,,
1713381387.180306,,,,,,,,,0.000000,0.000000,3.000000,0.260000,0.000000,0.000000,,,,,,,,,,,,,,,,,,,,,,,,,,,,,,,,,,,,,,,,,,,,,,,,,,,,,,,,,,,,,,,,,,,,,,,,,,,,,
1713381387.181085,0.000000,0.000000,3.000000,0.260000,0.000000,0.000000,,,,,,,,,,,,,,,,,,,,,,,,,,,,,,,,,,,,,,,,,,,,,,,,,,,,,,,,,,,,,,,,,,,,,,,,,,,,,,,,,,,,,
1713381387.181769,,,,,,,,0.175760,,,,,,,,,,,,,,,,,,,,,,,,,,,,,,,,,,,,,,,,,,,,,,,,,,,,,,,,,,,,,,,,,,,,,,,,,,,,,,,,,,,
1713381387.182281,,,,,,,22242.000000,,,,,,,,,,,,,,,,,,,,,,,,,,,,,,,,,,,,,,,,,,,,,,,,,,,,,,,,,,,,,,,,,,,,,,,,,,,,,,,,,,,,
1713381387.182669,,,,,,,,,,,,,,,,,,,,,,,,,,,,,,,,,,,,,,,,,,,,,,,,,,,,,,,,,,,,,,,,,,,,,,,,,,,,,,,,,,,,,,,,,,,0.175760
1713381387.197852,,,,,,,,,,,,,,,,,,,,,,,,,,,,,,,,,,,,,,,,,,,,,,,,,,,,,,,,,,,,,,,,,,,,,,,,,,1713381387.197312,-4.821777,-10.681152,105.957031,0.000000,0.000000,0.000000,0.326613,-0.259578,1.297383,-0.029383,-0.001498,0.029638,-0.999128,3.390273,-0.271328,-176.639033,
1713381387.198520,,,,,,,,,,,,,,,1713381387.197183,0.200000,0.000000,0.000000,0.000000,0.000000,0.000000,0.200000,0.000000,0.000000,0.000000,0.000000,0.000000,0.000000,0.000000,0.000000,0.000000,0.000000,0.000000,0.000000,0.000000,0.400000,0.000000,0.000000,0.222414,0.000000,0.000000,154.298319,0.974952,0.599383,1.839852,0.000000,0.000000,0.000000,0.000000,0.000000,0.000000,0.000000,0.000000,0.000000,0.000000,0.000000,0.000000,0.000000,0.000000,0.000000,0.000000,0.000000,0.000000,0.000000,0.000000,0.000000,0.000000,0.000000,0.000000,3.135710,2.946857,0.000000,0.000000,,,,,,,,,,,,,,,,,,
1713381387.218617,,,,,,,,,,,,,,,,,,,,,,,,,,,,,,,,,,,,,,,,,,,,,,,,,,,,,,,,,,,,,,,,,,,,,,,,,,1713381387.216811,53.955078,7.751465,86.791992,0.000000,0.000000,0.000000,-0.380906,0.088078,0.462422,-0.013870,0.001430,0.025527,-0.999577,2.927479,0.123198,-178.406877,
1713381387.220391,,,,,,,,,,,,,,,1713381387.216676,0.200000,0.000000,0.000000,0.000000,0.000000,0.000000,0.200000,0.000000,0.000000,0.000000,0.000000,0.000000,0.000000,0.000000,0.000000,0.000000,0.000000,0.000000,0.000000,0.000000,0.400000,0.000000,0.000000,0.192530,0.000000,0.000000,157.799096,0.981291,0.547643,1.864754,0.000000,0.000000,0.000000,0.000000,0.000000,0.000000,0.000000,0.000000,0.000000,0.000000,0.000000,0.000000,0.000000,0.000000,0.000000,0.000000,0.000000,0.000000,0.000000,0.000000,0.000000,0.000000,0.000000,0.000000,3.134562,2.945778,0.000000,0.000000,,,,,,,,,,,,,,,,,,
1713381387.230250,,,,,,,,,0.000000,0.000000,3.000000,0.260000,0.000000,0.000000,,,,,,,,,,,,,,,,,,,,,,,,,,,,,,,,,,,,,,,,,,,,,,,,,,,,,,,,,,,,,,,,,,,,,,,,,,,,,
