__time,/ackermann_cmd/drive/acceleration,/ackermann_cmd/drive/jerk,/ackermann_cmd/drive/speed,/ackermann_cmd/drive/steering_angle,/ackermann_cmd/drive/steering_angle_velocity,/ackermann_cmd/header/stamp,/commands/motor/speed/data,/commands/servo/position/data,/drive/drive/acceleration,/drive/drive/jerk,/drive/drive/speed,/drive/drive/steering_angle,/drive/drive/steering_angle_velocity,/drive/header/stamp,/odom/header/stamp,/odom/pose/covariance[0;0],/odom/pose/covariance[0;1],/odom/pose/covariance[0;2],/odom/pose/covariance[0;3],/odom/pose/covariance[0;4],/odom/pose/covariance[0;5],/odom/pose/covariance[1;1],/odom/pose/covariance[1;2],/odom/pose/covariance[1;3],/odom/pose/covariance[1;4],/odom/pose/covariance[1;5],/odom/pose/covariance[2;2],/odom/pose/covariance[2;3],/odom/pose/covariance[2;4],/odom/pose/covariance[2;5],/odom/pose/covariance[3;3],/odom/pose/covariance[3;4],/odom/pose/covariance[3;5],/odom/pose/covariance[4;4],/odom/pose/covariance[4;5],/odom/pose/covariance[5;5],/odom/pose/pose/orientation/pitch_deg,/odom/pose/pose/orientation/roll_deg,/odom/pose/pose/orientation/w,/odom/pose/pose/orientation/x,/odom/pose/pose/orientation/y,/odom/pose/pose/orientation/yaw_deg,/odom/pose/pose/orientation/z,/odom/pose/pose/position/x,/odom/pose/pose/position/y,/odom/pose/pose/position/z,/odom/twist/covariance[0;0],/odom/twist/covariance[0;1],/odom/twist/covariance[0;2],/odom/twist/covariance[0;3],/odom/twist/covariance[0;4],/odom/twist/covariance[0;5],/odom/twist/covariance[1;1],/odom/twist/covariance[1;2],/odom/twist/covariance[1;3],/odom/twist/covariance[1;4],/odom/twist/covariance[1;5],/odom/twist/covariance[2;2],/odom/twist/covariance[2;3],/odom/twist/covariance[2;4],/odom/twist/covariance[2;5],/odom/twist/covariance[3;3],/odom/twist/covariance[3;4],/odom/twist/covariance[3;5],/odom/twist/covariance[4;4],/odom/twist/covariance[4;5],/odom/twist/covariance[5;5],/odom/twist/twist/angular/x,/odom/twist/twist/angular/y,/odom/twist/twist/angular/z,/odom/twist/twist/linear/x,/odom/twist/twist/linear/y,/odom/twist/twist/linear/z,/sensors/imu/header/stamp,/sensors/imu/imu/angular_velocity/x,/sensors/imu/imu/angular_velocity/y,/sensors/imu/imu/angular_velocity/z,/sensors/imu/imu/compass/x,/sensors/imu/imu/compass/y,/sensors/imu/imu/compass/z,/sensors/imu/imu/linear_acceleration/x,/sensors/imu/imu/linear_acceleration/y,/sensors/imu/imu/linear_acceleration/z,/sensors/imu/imu/orientation/w,/sensors/imu/imu/orientation/x,/sensors/imu/imu/orientation/y,/sensors/imu/imu/orientation/z,/sensors/imu/imu/ypr/x,/sensors/imu/imu/ypr/y,/sensors/imu/imu/ypr/z,/sensors/servo_position_command/data
1713381439.989511,,,,,,,,,,,,,,,1713381439.937045,0.200000,0.000000,0.000000,0.000000,0.000000,0.000000,0.200000,0.000000,0.000000,0.000000,0.000000,0.000000,0.000000,0.000000,0.000000,0.000000,0.000000,0.000000,0.000000,0.000000,0.400000,0.000000,0.000000,-0.999925,0.000000,0.000000,1.399087,-0.012209,1.028993,-0.529079,0.000000,0.000000,0.000000,0.000000,0.000000,0.000000,0.000000,0.000000,0.000000,0.000000,0.000000,0.000000,0.000000,0.000000,0.000000,0.000000,0.000000,0.000000,0.000000,0.000000,0.000000,0.000000,0.000000,0.000000,1.654264,2.934718,0.000000,0.000000,,,,,,,,,,,,,,,,,,
1713381439.990078,,,,,,,,,,,,,,,1713381439.956780,0.200000,0.000000,0.000000,0.000000,0.000000,0.000000,0.200000,0.000000,0.000000,0.000000,0.000000,0.000000,0.000000,0.000000,0.000000,0.000000,0.000000,0.000000,0.000000,0.000000,0.400000,0.000000,0.000000,-0.999592,0.000000,0.000000,3.272112,-0.028551,1.086970,-0.527663,0.000000,0.000000,0.000000,0.000000,0.000000,0.000000,0.000000,0.000000,0.000000,0.000000,0.000000,0.000000,0.000000,0.000000,0.000000,0.000000,0.000000,0.000000,0.000000,0.000000,0.000000,0.000000,0.000000,0.000000,1.656393,2.938495,0.000000,0.000000,,,,,,,,,,,,,,,,,,
1713381439.990786,,,,,,,,,,,,,,,1713381439.977565,0.200000,0.000000,0.000000,0.000000,0.000000,0.000000,0.200000,0.000000,0.000000,0.000000,0.000000,0.000000,0.000000,0.000000,0.000000,0.000000,0.000000,0.000000,0.000000,0.000000,0.400000,0.000000,0.000000,-0.998952,0.000000,0.000000,5.246406,-0.045768,1.148000,-0.524174,0.000000,0.000000,0.000000,0.000000,0.000000,0.000000,0.000000,0.000000,0.000000,0.000000,0.000000,0.000000,0.000000,0.000000,0.000000,0.000000,0.000000,0.000000,0.000000,0.000000,0.000000,0.000000,0.000000,0.000000,1.657838,2.941057,0.000000,0.000000,,,,,,,,,,,,,,,,,,
1713381439.991373,,,,,,,,,,,,,,,,,,,,,,,,,,,,,,,,,,,,,,,,,,,,,,,,,,,,,,,,,,,,,,,,,,,,,,,,,,,,,,,,,,,,,,,,,,,0.273440
1713381439.995822,,,,,,,,,,,,,,,1713381439.992001,0.200000,0.000000,0.000000,0.000000,0.000000,0.000000,0.200000,0.000000,0.000000,0.000000,0.000000,0.000000,0.000000,0.000000,0.000000,0.000000,0.000000,0.000000,0.000000,0.000000,0.400000,0.000000,0.000000,-0.998332,0.000000,0.000000,6.619080,-0.057730,1.190324,-0.520288,0.000000,0.000000,0.000000,0.000000,0.000000,0.000000,0.000000,0.000000,0.000000,0.000000,0.000000,0.000000,0.000000,0.000000,0.000000,0.000000,0.000000,0.000000,0.000000,0.000000,0.000000,0.000000,0.000000,0.000000,1.659586,2.944160,0.000000,0.000000,,,,,,,,,,,,,,,,,,
1713381440.009719,,,,,,,,,,,,,,,,,,,,,,,,,,,,,,,,,,,,,,,,,,,,,,,,,,,,,,,,,,,,,,,,,,,,,,,,,,,,,,,,,,,,,,,,,,,0.273440
1713381440.021905,,,,,,,,,,,,,,,1713381440.018422,0.200000,0.000000,0.000000,0.000000,0.000000,0.000000,0.200000,0.000000,0.000000,0.000000,0.000000,0.000000,0.000000,0.000000,0.000000,0.000000,0.000000,0.000000,0.000000,0.000000,0.400000,0.000000,0.000000,-0.996825,0.000000,0.000000,9.133998,-0.079625,1.267673,-0.511312,0.000000,0.000000,0.000000,0.000000,0.000000,0.000000,0.000000,0.000000,0.000000,0.000000,0.000000,0.000000,0.000000,0.000000,0.000000,0.000000,0.000000,0.000000,0.000000,0.000000,0.000000,0.000000,0.000000,0.000000,1.661335,2.947262,0.000000,0.000000,,,,,,,,,,,,,,,,,,
1713381440.041596,,,,,,,,,,,,,,,1713381440.034883,0.200000,0.000000,0.000000,0.000000,0.000000,0.000000,0.200000,0.000000,0.000000,0.000000,0.000000,0.000000,0.000000,0.000000,0.000000,0.000000,0.000000,0.000000,0.000000,0.000000,0.400000,0.000000,0.000000,-0.995642,0.000000,0.000000,10.702065,-0.093257,1.315609,-0.503605,0.000000,0.000000,0.000000,0.000000,0.000000,0.000000,0.000000,0.000000,0.000000,0.000000,0.000000,0.000000,0.000000,0.000000,0.000000,0.000000,0.000000,0.000000,0.000000,0.000000,0.000000,0.000000,0.000000,0.000000,1.662551,2.949420,0.000000,0.000000,,,,,,,,,,,,,,,,,,
1713381440.055423,,,,,,,,,0.000000,0.000000,3.000000,0.140000,0.000000,0.000000,,,,,,,,,,,,,,,,,,,,,,,,,,,,,,,,,,,,,,,,,,,,,,,,,,,,,,,,,,,,,,,,,,,,,,,,,,,,,
1713381440.055960,0.000000,0.000000,3.000000,0.140000,0.000000,0.000000,,,,,,,,,,,,,,,,,,,,,,,,,,,,,,,,,,,,,,,,,,,,,,,,,,,,,,,,,,,,,,,,,,,,,,,,,,,,,,,,,,,,,
1713381440.058191,,,,,,,,,,,,,,,,,,,,,,,,,,,,,,,,,,,,,,,,,,,,,,,,,,,,,,,,,,,,,,,,,,,,,,,,,,,,,,,,,,,,,,,,,,,0.273440
1713381440.058457,,,,,,,,,,,,,,,1713381440.056919,0.200000,0.000000,0.000000,0.000000,0.000000,0.000000,0.200000,0.000000,0.000000,0.000000,0.000000,0.000000,0.000000,0.000000,0.000000,0.000000,0.000000,0.000000,0.000000,0.000000,0.400000,0.000000,0.000000,-0.993766,0.000000,0.000000,12.801812,-0.111485,1.379492,-0.491531,0.000000,0.000000,0.000000,0.000000,0.000000,0.000000,0.000000,0.000000,0.000000,0.000000,0.000000,0.000000,0.000000,0.000000,0.000000,0.000000,0.000000,0.000000,0.000000,0.000000,0.000000,0.000000,0.000000,0.000000,1.663084,2.950364,0.000000,0.000000,,,,,,,,,,,,,,,,,,
1713381440.074832,,,,,,,,,,,,,,,1713381440.071606,0.200000,0.000000,0.000000,0.000000,0.000000,0.000000,0.200000,0.000000,0.000000,0.000000,0.000000,0.000000,0.000000,0.000000,0.000000,0.000000,0.000000,0.000000,0.000000,0.000000,0.400000,0.000000,0.000000,-0.992330,0.000000,0.000000,14.202006,-0.123619,1.421768,-0.481925,0.000000,0.000000,0.000000,0.000000,0.000000,0.000000,0.000000,0.000000,0.000000,0.000000,0.000000,0.000000,0.000000,0.000000,0.000000,0.000000,0.000000,0.000000,0.000000,0.000000,0.000000,0.000000,0.000000,0.000000,1.663996,2.951983,0.000000,0.000000,,,,,,,,,,,,,,,,,,
1713381440.081401,,,,,,,,,,,,,,,,,,,,,,,,,,,,,,,,,,,,,,,,,,,,,,,,,,,,,,,,,,,,,,,,,,,,,,,,,,1713381440.077238,-29.113770,-58.410645,68.603516,0.000000,0.000000,0.000000,-0.297410,-0.147273,2.454609,0.502283,-0.027494,0.023900,-0.863936,3.952771,-1.346439,119.607049,
1713381440.094377,,,,,,,,,,,,,,,,,,,,,,,,,,,,,,,,,,,,,,,,,,,,,,,,,,,,,,,,,,,,,,,,,,,,,,,,,,1713381440.092826,33.569336,30.883789,55.358887,0.000000,0.000000,0.000000,-0.314988,0.134465,1.611348,0.510884,-0.027434,0.020959,-0.858956,3.672743,-1.473437,118.466708,
1713381440.095027,,,,,,,,,,,,,,,1713381440.092683,0.200000,0.000000,0.000000,0.000000,0.000000,0.000000,0.200000,0.000000,0.000000,0.000000,0.000000,0.000000,0.000000,0.000000,0.000000,0.000000,0.000000,0.000000,0.000000,0.000000,0.400000,0.000000,0.000000,-0.990010,0.000000,0.000000,16.211470,-0.141000,1.482085,-0.466660,0.000000,0.000000,0.000000,0.000000,0.000000,0.000000,0.000000,0.000000,0.000000,0.000000,0.000000,0.000000,0.000000,0.000000,0.000000,0.000000,0.000000,0.000000,0.000000,0.000000,0.000000,0.000000,0.000000,0.000000,1.663920,2.951848,0.000000,0.000000,,,,,,,,,,,,,,,,,,
1713381440.121569,,,,,,,,,0.000000,0.000000,3.000000,0.140000,0.000000,0.000000,,,,,,,,,,,,,,,,,,,,,,,,,,,,,,,,,,,,,,,,,,,,,,,,,,,,,,,,,,,,,,,,,,,,,,,,,,,,,
1713381440.122056,,,,,,,,,,,,,,,,,,,,,,,,,,,,,,,,,,,,,,,,,,,,,,,,,,,,,,,,,,,,,,,,,,,,,,,,,,,,,,,,,,,,,,,,,,,0.273440
1713381440.122360,,,,,,,,,,,,,,,1713381440.112259,0.200000,0.000000,0.000000,0.000000,0.000000,0.000000,0.200000,0.000000,0.000000,0.000000,0.000000,0.000000,0.000000,0.000000,0.000000,0.000000,0.000000,0.000000,0.000000,0.000000,0.400000,0.000000,0.000000,-0.987584,0.000000,0.000000,18.076578,-0.157094,1.537538,-0.450538,0.000000,0.000000,0.000000,0.000000,0.000000,0.000000,0.000000,0.000000,0.000000,0.000000,0.000000,0.000000,0.000000,0.000000,0.000000,0.000000,0.000000,0.000000,0.000000,0.000000,0.000000,0.000000,0.000000,0.000000,1.662856,2.949960,0.000000,0.000000,,,,,,,,,,,,,,,,,,
1713381440.123430,0.000000,0.000000,3.000000,0.140000,0.000000,0.000000,,,,,,,,,,,,,,,,,,,,,,,,,,,,,,,,,,,,,,,,,,,,,,,,,,,,,,,,,,,,,,,,,,,,,,,,,,,,,,,,,,,,,
1713381440.123713,,,,,,,22242.000000,,,,,,,,,,,,,,,,,,,,,,,,,,,,,,,,,,,,,,,,,,,,,,,,,,,,,,,,,,,,,,,,,,,,,,,,,,,,,,,,,,,,
1713381440.123982,,,,,,,,,,,,,,,,,,,,,,,,,,,,,,,,,,,,,,,,,,,,,,,,,,,,,,,,,,,,,,,,,,,,,,,,,,1713381440.117771,12.023926,-7.507324,65.734863,0.000000,0.000000,0.000000,-1.169969,0.198918,-0.075664,0.523312,-0.016307,0.019604,-0.851759,2.892566,-0.416023,116.857215,
1713381440.141951,,,,,,,,,,,,,,,,,,,,,,,,,,,,,,,,,,,,,,,,,,,,,,,,,,,,,,,,,,,,,,,,,,,,,,,,,,1713381440.139060,-37.536621,1.098633,68.481445,0.000000,0.000000,0.000000,-0.189012,-0.051082,0.136250,0.533663,-0.020466,0.022258,-0.845156,3.409414,-0.620969,115.441849,
1713381440.142515,,,,,,,,,,,,,,,1713381440.137077,0.200000,0.000000,0.000000,0.000000,0.000000,0.000000,0.200000,0.000000,0.000000,0.000000,0.000000,0.000000,0.000000,0.000000,0.000000,0.000000,0.000000,0.000000,0.000000,0.000000,0.400000,0.000000,0.000000,-0.984132,0.000000,0.000000,20.441029,-0.177437,1.607134,-0.427822,0.000000,0.000000,0.000000,0.000000,0.000000,0.000000,0.000000,0.000000,0.000000,0.000000,0.000000,0.000000,0.000000,0.000000,0.000000,0.000000,0.000000,0.000000,0.000000,0.000000,0.000000,0.000000,0.000000,0.000000,1.662856,2.949960,0.000000,0.000000,,,,,,,,,,,,,,,,,,
1713381440.153276,,,,,,,,,,,,,,,1713381440.151677,0.200000,0.000000,0.000000,0.000000,0.000000,0.000000,0.200000,0.000000,0.000000,0.000000,0.000000,0.000000,0.000000,0.000000,0.000000,0.000000,0.000000,0.000000,0.000000,0.000000,0.400000,0.000000,0.000000,-0.981905,0.000000,0.000000,21.832235,-0.189372,1.647497,-0.412778,0.000000,0.000000,0.000000,0.000000,0.000000,0.000000,0.000000,0.000000,0.000000,0.000000,0.000000,0.000000,0.000000,0.000000,0.000000,0.000000,0.000000,0.000000,0.000000,0.000000,0.000000,0.000000,0.000000,0.000000,1.663084,2.950364,0.000000,0.000000,,,,,,,,,,,,,,,,,,
1713381440.160067,,,,,,,,,0.000000,0.000000,3.000000,0.140000,0.000000,0.000000,,,,,,,,,,,,,,,,,,,,,,,,,,,,,,,,,,,,,,,,,,,,,,,,,,,,,,,,,,,,,,,,,,,,,,,,,,,,,
1713381440.160539,,,,,,,,,,,,,,,,,,,,,,,,,,,,,,,,,,,,,,,,,,,,,,,,,,,,,,,,,,,,,,,,,,,,,,,,,,1713381440.157126,-0.366211,-2.502441,60.058594,0.000000,0.000000,0.000000,1.090285,-0.297664,2.534199,0.543140,-0.024740,0.023812,-0.838939,3.832314,-0.896362,114.130917,
1713381440.163676,0.000000,0.000000,3.000000,0.140000,0.000000,0.000000,,,,,,,,,,,,,,,,,,,,,,,,,,,,,,,,,,,,,,,,,,,,,,,,,,,,,,,,,,,,,,,,,,,,,,,,,,,,,,,,,,,,,
1713381440.164195,,,,,,,,,,,,,,,,,,,,,,,,,,,,,,,,,,,,,,,,,,,,,,,,,,,,,,,,,,,,,,,,,,,,,,,,,,,,,,,,,,,,,,,,,,,0.273440
1713381440.164482,,,,,,,22242.000000,,,,,,,,,,,,,,,,,,,,,,,,,,,,,,,,,,,,,,,,,,,,,,,,,,,,,,,,,,,,,,,,,,,,,,,,,,,,,,,,,,,,
1713381440.164708,,,,,,,,0.273440,,,,,,,,,,,,,,,,,,,,,,,,,,,,,,,,,,,,,,,,,,,,,,,,,,,,,,,,,,,,,,,,,,,,,,,,,,,,,,,,,,,
1713381440.174278,,,,,,,,,,,,,,,,,,,,,,,,,,,,,,,,,,,,,,,,,,,,,,,,,,,,,,,,,,,,,,,,,,,,,,,,,,1713381440.172181,18.859863,2.502441,42.358398,0.000000,0.000000,0.000000,0.746535,0.180852,1.529805,0.552211,-0.021120,0.019471,-0.833210,3.197423,-0.784438,112.909181,
1713381440.176426,,,,,,,,,,,,,,,1713381440.171971,0.200000,0.000000,0.000000,0.000000,0.000000,0.000000,0.200000,0.000000,0.000000,0.000000,0.000000,0.000000,0.000000,0.000000,0.000000,0.000000,0.000000,0.000000,0.000000,0.000000,0.400000,0.000000,0.000000,-0.978571,0.000000,0.000000,23.765459,-0.205909,1.703062,-0.390517,0.000000,0.000000,0.000000,0.000000,0.000000,0.000000,0.000000,0.000000,0.000000,0.000000,0.000000,0.000000,0.000000,0.000000,0.000000,0.000000,0.000000,0.000000,0.000000,0.000000,0.000000,0.000000,0.000000,0.000000,1.662627,2.949555,0.000000,0.000000,,,,,,,,,,,,,,,,,,
1713381440.198143,,,,,,,,,,,,,,,,,,,,,,,,,,,,,,,,,,,,,,,,,,,,,,,,,,,,,,,,,,,,,,,,,,,,,,,,,,1713381440.196959,-28.076172,6.713867,45.227051,0.000000,0.000000,0.000000,-0.137742,-0.143855,1.016133,0.558287,-0.020557,0.024669,-0.829026,3.661224,-0.374723,112.073439,
1713381440.199935,,,,,,,,,,,,,,,1713381440.196811,0.200000,0.000000,0.000000,0.000000,0.000000,0.000000,0.200000,0.000000,0.000000,0.000000,0.000000,0.000000,0.000000,0.000000,0.000000,0.000000,0.000000,0.000000,0.000000,0.000000,0.400000,0.000000,0.000000,-0.974112,0.000000,0.000000,26.131185,-0.226066,1.770100,-0.360998,0.000000,0.000000,0.000000,0.000000,0.000000,0.000000,0.000000,0.000000,0.000000,0.000000,0.000000,0.000000,0.000000,0.000000,0.000000,0.000000,0.000000,0.000000,0.000000,0.000000,0.000000,0.000000,0.000000,0.000000,1.662171,2.948746,0.000000,0.000000,,,,,,,,,,,,,,,,,,
1713381440.206842,,,,,,,,,0.000000,0.000000,3.000000,0.140000,0.000000,0.000000,,,,,,,,,,,,,,,,,,,,,,,,,,,,,,,,,,,,,,,,,,,,,,,,,,,,,,,,,,,,,,,,,,,,,,,,,,,,,
1713381440.207346,0.000000,0.000000,3.000000,0.140000,0.000000,0.000000,,,,,,,,,,,,,,,,,,,,,,,,,,,,,,,,,,,,,,,,,,,,,,,,,,,,,,,,,,,,,,,,,,,,,,,,,,,,,,,,,,,,,
1713381440.207702,,,,,,,22242.000000,,,,,,,,,,,,,,,,,,,,,,,,,,,,,,,,,,,,,,,,,,,,,,,,,,,,,,,,,,,,,,,,,,,,,,,,,,,,,,,,,,,,
1713381440.208044,,,,,,,,0.273440,,,,,,,,,,,,,,,,,,,,,,,,,,,,,,,,,,,,,,,,,,,,,,,,,,,,,,,,,,,,,,,,,,,,,,,,,,,,,,,,,,,
1713381440.208421,,,,,,,,,,,,,,,,,,,,,,,,,,,,,,,,,,,,,,,,,,,,,,,,,,,,,,,,,,,,,,,,,,,,,,,,,,,,,,,,,,,,,,,,,,,0.273440
1713381440.219599,,,,,,,,,,,,,,,,,,,,,,,,,,,,,,,,,,,,,,,,,,,,,,,,,,,,,,,,,,,,,,,,,,,,,,,,,,1713381440.216910,14.038086,-13.977051,47.241211,0.000000,0.000000,0.000000,-0.006395,-0.038387,0.755879,0.565203,-0.021334,0.024975,-0.824298,3.743533,-0.397608,111.111871,
1713381440.219931,,,,,,,,,,,,,,,1713381440.216774,0.200000,0.000000,0.000000,0.000000,0.000000,0.000000,0.200000,0.000000,0.000000,0.000000,0.000000,0.000000,0.000000,0.000000,0.000000,0.000000,0.000000,0.000000,0.000000,0.000000,0.400000,0.000000,0.000000,-0.970226,0.000000,0.000000,28.032987,-0.242201,1.822966,-0.335064,0.000000,0.000000,0.000000,0.000000,0.000000,0.000000,0.000000,0.000000,0.000000,0.000000,0.000000,0.000000,0.000000,0.000000,0.000000,0.000000,0.000000,0.000000,0.000000,0.000000,0.000000,0.000000,0.000000,0.000000,1.662780,2.949825,0.000000,0.000000,,,,,,,,,,,,,,,,,,
1713381440.239180,,,,,,,,,,,,,,,1713381440.237699,0.200000,0.000000,0.000000,0.000000,0.000000,0.000000,0.200000,0.000000,0.000000,0.000000,0.000000,0.000000,0.000000,0.000000,0.000000,0.000000,0.000000,0.000000,0.000000,0.000000,0.400000,0.000000,0.000000,-0.965866,0.000000,0.000000,30.026498,-0.259042,1.877449,-0.306055,0.000000,0.000000,0.000000,0.000000,0.000000,0.000000,0.000000,0.000000,0.000000,0.000000,0.000000,0.000000,0.000000,0.000000,0.000000,0.000000,0.000000,0.000000,0.000000,0.000000,0.000000,0.000000,0.000000,0.000000,1.662780,2.949825,0.000000,0.000000,,,,,,,,,,,,,,,,,,
1713381440.244191,,,,,,,,,,,,,,,,,,,,,,,,,,,,,,,,,,,,,,,,,,,,,,,,,,,,,,,,,,,,,,,,,,,,,,,,,,1713381440.237946,18.493652,-5.249023,49.133301,0.000000,0.000000,0.000000,0.129836,0.225773,0.670918,0.574236,-0.021029,0.021353,-0.818141,3.387801,-0.566364,109.854809,
1713381440.256934,,,,,,,,,0.000000,0.000000,3.000000,0.140000,0.000000,0.000000,,,,,,,,,,,,,,,,,,,,,,,,,,,,,,,,,,,,,,,,,,,,,,,,,,,,,,,,,,,,,,,,,,,,,,,,,,,,,
1713381440.258569,0.000000,0.000000,3.000000,0.140000,0.000000,0.000000,,,,,,,,,,,,,,,,,,,,,,,,,,,,,,,,,,,,,,,,,,,,,,,,,,,,,,,,,,,,,,,,,,,,,,,,,,,,,,,,,,,,,
1713381440.258946,,,,,,,22242.000000,,,,,,,,,,,,,,,,,,,,,,,,,,,,,,,,,,,,,,,,,,,,,,,,,,,,,,,,,,,,,,,,,,,,,,,,,,,,,,,,,,,,
1713381440.259199,,,,,,,,0.273440,,,,,,,,,,,,,,,,,,,,,,,,,,,,,,,,,,,,,,,,,,,,,,,,,,,,,,,,,,,,,,,,,,,,,,,,,,,,,,,,,,,
1713381440.261111,,,,,,,,,,,,,,,,,,,,,,,,,,,,,,,,,,,,,,,,,,,,,,,,,,,,,,,,,,,,,,,,,,,,,,,,,,,,,,,,,,,,,,,,,,,0.273440
1713381440.261752,,,,,,,,,,,,,,,,,,,,,,,,,,,,,,,,,,,,,,,,,,,,,,,,,,,,,,,,,,,,,,,,,,,,,,,,,,1713381440.258534,-17.211914,-2.075195,54.504395,0.000000,0.000000,0.000000,0.987258,0.058781,1.236836,0.581417,-0.023002,0.020620,-0.813019,3.455974,-0.769237,108.837104,
1713381440.263803,,,,,,,,,,,,,,,1713381440.258384,0.200000,0.000000,0.000000,0.000000,0.000000,0.000000,0.200000,0.000000,0.000000,0.000000,0.000000,0.000000,0.000000,0.000000,0.000000,0.000000,0.000000,0.000000,0.000000,0.000000,0.400000,0.000000,0.000000,-0.961269,0.000000,0.000000,31.996889,-0.275611,1.930270,-0.275526,0.000000,0.000000,0.000000,0.000000,0.000000,0.000000,0.000000,0.000000,0.000000,0.000000,0.000000,0.000000,0.000000,0.000000,0.000000,0.000000,0.000000,0.000000,0.000000,0.000000,0.000000,0.000000,0.000000,0.000000,1.662551,2.949420,0.000000,0.000000,,,,,,,,,,,,,,,,,,
1713381440.278220,,,,,,,,,,,,,,,,,,,,,,,,,,,,,,,,,,,,,,,,,,,,,,,,,,,,,,,,,,,,,,,,,,,,,,,,,,1713381440.276846,-4.394531,12.145996,50.170898,0.000000,0.000000,0.000000,0.368117,0.090031,1.415547,0.588504,-0.022870,0.021956,-0.807872,3.577470,-0.636575,107.836311,
1713381440.280062,,,,,,,,,,,,,,,1713381440.276696,0.200000,0.000000,0.000000,0.000000,0.000000,0.000000,0.200000,0.000000,0.000000,0.000000,0.000000,0.000000,0.000000,0.000000,0.000000,0.000000,0.000000,0.000000,0.000000,0.000000,0.400000,0.000000,0.000000,-0.956963,0.000000,0.000000,33.740866,-0.290208,1.976064,-0.246914,0.000000,0.000000,0.000000,0.000000,0.000000,0.000000,0.000000,0.000000,0.000000,0.000000,0.000000,0.000000,0.000000,0.000000,0.000000,0.000000,0.000000,0.000000,0.000000,0.000000,0.000000,0.000000,0.000000,0.000000,1.662095,2.948611,0.000000,0.000000,,,,,,,,,,,,,,,,,,
1713381440.293124,,,,,,,,,,,,,,,1713381440.291854,0.200000,0.000000,0.000000,0.000000,0.000000,0.000000,0.200000,0.000000,0.000000,0.000000,0.000000,0.000000,0.000000,0.000000,0.000000,0.000000,0.000000,0.000000,0.000000,0.000000,0.400000,0.000000,0.000000,-0.953233,0.000000,0.000000,35.183845,-0.302236,2.013217,-0.222097,0.000000,0.000000,0.000000,0.000000,0.000000,0.000000,0.000000,0.000000,0.000000,0.000000,0.000000,0.000000,0.000000,0.000000,0.000000,0.000000,0.000000,0.000000,0.000000,0.000000,0.000000,0.000000,0.000000,0.000000,1.661487,2.947532,0.000000,0.000000,,,,,,,,,,,,,,,,,,
1713381440.297571,,,,,,,,,,,,,,,,,,,,,,,,,,,,,,,,,,,,,,,,,,,,,,,,,,,,,,,,,,,,,,,,,,,,,,,,,,1713381440.297230,25.634766,4.821777,50.598145,0.000000,0.000000,0.000000,0.263137,0.088078,0.138203,0.597818,-0.023069,0.019223,-0.801069,3.347169,-0.800730,106.510496,
1713381440.306181,,,,,,,,,0.000000,0.000000,3.000000,0.140000,0.000000,0.000000,,,,,,,,,,,,,,,,,,,,,,,,,,,,,,,,,,,,,,,,,,,,,,,,,,,,,,,,,,,,,,,,,,,,,,,,,,,,,
1713381440.306750,0.000000,0.000000,3.000000,0.140000,0.000000,0.000000,,,,,,,,,,,,,,,,,,,,,,,,,,,,,,,,,,,,,,,,,,,,,,,,,,,,,,,,,,,,,,,,,,,,,,,,,,,,,,,,,,,,,
1713381440.308605,,,,,,,,,,,,,,,,,,,,,,,,,,,,,,,,,,,,,,,,,,,,,,,,,,,,,,,,,,,,,,,,,,,,,,,,,,,,,,,,,,,,,,,,,,,0.273440
1713381440.308902,,,,,,,22242.000000,,,,,,,,,,,,,,,,,,,,,,,,,,,,,,,,,,,,,,,,,,,,,,,,,,,,,,,,,,,,,,,,,,,,,,,,,,,,,,,,,,,,
1713381440.309195,,,,,,,,0.273440,,,,,,,,,,,,,,,,,,,,,,,,,,,,,,,,,,,,,,,,,,,,,,,,,,,,,,,,,,,,,,,,,,,,,,,,,,,,,,,,,,,
1713381440.314574,,,,,,,,,,,,,,,1713381440.311671,0.200000,0.000000,0.000000,0.000000,0.000000,0.000000,0.200000,0.000000,0.000000,0.000000,0.000000,0.000000,0.000000,0.000000,0.000000,0.000000,0.000000,0.000000,0.000000,0.000000,0.400000,0.000000,0.000000,-0.948131,0.000000,0.000000,37.069562,-0.317880,2.060937,-0.188455,0.000000,0.000000,0.000000,0.000000,0.000000,0.000000,0.000000,0.000000,0.000000,0.000000,0.000000,0.000000,0.000000,0.000000,0.000000,0.000000,0.000000,0.000000,0.000000,0.000000,0.000000,0.000000,0.000000,0.000000,1.660803,2.946318,0.000000,0.000000,,,,,,,,,,,,,,,,,,
1713381440.317728,,,,,,,,,,,,,,,,,,,,,,,,,,,,,,,,,,,,,,,,,,,,,,,,,,,,,,,,,,,,,,,,,,,,,,,,,,1713381440.317024,0.061035,0.366211,51.147461,0.000000,0.000000,0.000000,0.093215,-0.076961,0.404316,0.604327,-0.022792,0.019066,-0.796182,3.319974,-0.759092,105.578762,
1713381440.338771,,,,,,,,,,,,,,,,,,,,,,,,,,,,,,,,,,,,,,,,,,,,,,,,,,,,,,,,,,,,,,,,,,,,,,,,,,1713381440.337127,-13.427734,6.530762,45.837402,0.000000,0.000000,0.000000,0.320266,-0.115535,1.193379,0.610538,-0.023696,0.019348,-0.791396,3.414800,-0.795288,104.678161,
1713381440.340660,,,,,,,,,,,,,,,1713381440.336981,0.200000,0.000000,0.000000,0.000000,0.000000,0.000000,0.200000,0.000000,0.000000,0.000000,0.000000,0.000000,0.000000,0.000000,0.000000,0.000000,0.000000,0.000000,0.000000,0.000000,0.400000,0.000000,0.000000,-0.941238,0.000000,0.000000,39.479013,-0.337744,2.120463,-0.143485,0.000000,0.000000,0.000000,0.000000,0.000000,0.000000,0.000000,0.000000,0.000000,0.000000,0.000000,0.000000,0.000000,0.000000,0.000000,0.000000,0.000000,0.000000,0.000000,0.000000,0.000000,0.000000,0.000000,0.000000,1.661563,2.947667,0.000000,0.000000,,,,,,,,,,,,,,,,,,
1713381440.356055,,,,,,,,,0.000000,0.000000,3.000000,0.140000,0.000000,0.000000,,,,,,,,,,,,,,,,,,,,,,,,,,,,,,,,,,,,,,,,,,,,,,,,,,,,,,,,,,,,,,,,,,,,,,,,,,,,,
1713381440.356643,0.000000,0.000000,3.000000,0.140000,0.000000,0.000000,,,,,,,,,,,,,,,,,,,,,,,,,,,,,,,,,,,,,,,,,,,,,,,,,,,,,,,,,,,,,,,,,,,,,,,,,,,,,,,,,,,,,
1713381440.357787,,,,,,,22242.000000,,,,,,,,,,,,,,,,,,,,,,,,,,,,,,,,,,,,,,,,,,,,,,,,,,,,,,,,,,,,,,,,,,,,,,,,,,,,,,,,,,,,
1713381440.358813,,,,,,,,,,,,,,,,,,,,,,,,,,,,,,,,,,,,,,,,,,,,,,,,,,,,,,,,,,,,,,,,,,,,,,,,,,,,,,,,,,,,,,,,,,,0.273440
1713381440.359076,,,,,,,,,,,,,,,1713381440.357115,0.200000,0.000000,0.000000,0.000000,0.000000,0.000000,0.200000,0.000000,0.000000,0.000000,0.000000,0.000000,0.000000,0.000000,0.000000,0.000000,0.000000,0.000000,0.000000,0.000000,0.400000,0.000000,0.000000,-0.935455,0.000000,0.000000,41.396308,-0.353445,2.166284,-0.105741,0.000000,0.000000,0.000000,0.000000,0.000000,0.000000,0.000000,0.000000,0.000000,0.000000,0.000000,0.000000,0.000000,0.000000,0.000000,0.000000,0.000000,0.000000,0.000000,0.000000,0.000000,0.000000,0.000000,0.000000,1.662019,2.948476,0.000000,0.000000,,,,,,,,,,,,,,,,,,
1713381440.359931,,,,,,,,,,,,,,,,,,,,,,,,,,,,,,,,,,,,,,,,,,,,,,,,,,,,,,,,,,,,,,,,,,,,,,,,,,1713381440.357285,15.991211,-0.793457,59.143066,0.000000,0.000000,0.000000,0.354934,0.061223,1.233906,0.620587,-0.026483,0.017357,-0.783498,3.444455,-1.143484,103.202089,
1713381440.360592,,,,,,,,0.273440,,,,,,,,,,,,,,,,,,,,,,,,,,,,,,,,,,,,,,,,,,,,,,,,,,,,,,,,,,,,,,,,,,,,,,,,,,,,,,,,,,,
1713381440.377265,,,,,,,,,,,,,,,1713381440.373902,0.200000,0.000000,0.000000,0.000000,0.000000,0.000000,0.200000,0.000000,0.000000,0.000000,0.000000,0.000000,0.000000,0.000000,0.000000,0.000000,0.000000,0.000000,0.000000,0.000000,0.400000,0.000000,0.000000,-0.930433,0.000000,0.000000,42.995245,-0.366463,2.203422,-0.073004,0.000000,0.000000,0.000000,0.000000,0.000000,0.000000,0.000000,0.000000,0.000000,0.000000,0.000000,0.000000,0.000000,0.000000,0.000000,0.000000,0.000000,0.000000,0.000000,0.000000,0.000000,0.000000,0.000000,0.000000,1.662323,2.949015,0.000000,0.000000,,,,,,,,,,,,,,,,,,
1713381440.378671,,,,,,,,,,,,,,,,,,,,,,,,,,,,,,,,,,,,,,,,,,,,,,,,,,,,,,,,,,,,,,,,,,,,,,,,,,1713381440.374224,20.568848,10.070801,57.434082,0.000000,0.000000,0.000000,0.163527,0.129582,0.272480,0.628006,-0.025042,0.016006,-0.777641,3.230697,-1.079688,102.122345,
1713381440.401802,,,,,,,,,,,,,,,1713381440.396899,0.200000,0.000000,0.000000,0.000000,0.000000,0.000000,0.200000,0.000000,0.000000,0.000000,0.000000,0.000000,0.000000,0.000000,0.000000,0.000000,0.000000,0.000000,0.000000,0.000000,0.400000,0.000000,0.000000,-0.923258,0.000000,0.000000,45.185853,-0.384181,2.253032,-0.026750,0.000000,0.000000,0.000000,0.000000,0.000000,0.000000,0.000000,0.000000,0.000000,0.000000,0.000000,0.000000,0.000000,0.000000,0.000000,0.000000,0.000000,0.000000,0.000000,0.000000,0.000000,0.000000,0.000000,0.000000,1.662551,2.949420,0.000000,0.000000,,,,,,,,,,,,,,,,,,
1713381440.402987,,,,,,,,,,,,,,,,,,,,,,,,,,,,,,,,,,,,,,,,,,,,,,,,,,,,,,,,,,,,,,,,,,,,,,,,,,1713381440.397099,12.573242,-15.136719,59.936523,0.000000,0.000000,0.000000,0.173293,-0.094051,0.784688,0.635198,-0.025810,0.016047,-0.771752,3.300219,-1.114616,101.055060,
1713381440.411884,,,,,,,,,0.000000,0.000000,3.000000,0.140000,0.000000,0.000000,,,,,,,,,,,,,,,,,,,,,,,,,,,,,,,,,,,,,,,,,,,,,,,,,,,,,,,,,,,,,,,,,,,,,,,,,,,,,
1713381440.414070,0.000000,0.000000,3.000000,0.140000,0.000000,0.000000,,,,,,,,,,,,,,,,,,,,,,,,,,,,,,,,,,,,,,,,,,,,,,,,,,,,,,,,,,,,,,,,,,,,,,,,,,,,,,,,,,,,,
1713381440.414579,,,,,,,22242.000000,,,,,,,,,,,,,,,,,,,,,,,,,,,,,,,,,,,,,,,,,,,,,,,,,,,,,,,,,,,,,,,,,,,,,,,,,,,,,,,,,,,,
1713381440.415305,,,,,,,,0.273440,,,,,,,,,,,,,,,,,,,,,,,,,,,,,,,,,,,,,,,,,,,,,,,,,,,,,,,,,,,,,,,,,,,,,,,,,,,,,,,,,,,
1713381440.415633,,,,,,,,,,,,,,,,,,,,,,,,,,,,,,,,,,,,,,,,,,,,,,,,,,,,,,,,,,,,,,,,,,,,,,,,,,,,,,,,,,,,,,,,,,,0.273440
1713381440.420286,,,,,,,,,,,,,,,1713381440.418186,0.200000,0.000000,0.000000,0.000000,0.000000,0.000000,0.200000,0.000000,0.000000,0.000000,0.000000,0.000000,0.000000,0.000000,0.000000,0.000000,0.000000,0.000000,0.000000,0.000000,0.400000,0.000000,0.000000,-0.916314,0.000000,0.000000,47.213871,-0.400460,2.297289,0.017795,0.000000,0.000000,0.000000,0.000000,0.000000,0.000000,0.000000,0.000000,0.000000,0.000000,0.000000,0.000000,0.000000,0.000000,0.000000,0.000000,0.000000,0.000000,0.000000,0.000000,0.000000,0.000000,0.000000,0.000000,1.662780,2.949825,0.000000,0.000000,,,,,,,,,,,,,,,,,,
1713381440.420866,,,,,,,,,,,,,,,,,,,,,,,,,,,,,,,,,,,,,,,,,,,,,,,,,,,,,,,,,,,,,,,,,,,,,,,,,,1713381440.418316,8.056641,5.737305,57.800293,0.000000,0.000000,0.000000,0.337355,0.200871,0.712422,0.644666,-0.026812,0.014818,-0.763851,3.280350,-1.252317,99.637550,
1713381440.438091,,,,,,,,,,,,,,,,,,,,,,,,,,,,,,,,,,,,,,,,,,,,,,,,,,,,,,,,,,,,,,,,,,,,,,,,,,1713381440.437458,-18.310547,-6.225586,56.762695,0.000000,0.000000,0.000000,0.121535,-0.084773,1.250020,0.651577,-0.029172,0.015262,-0.757867,3.506852,-1.394035,98.582654,
1713381440.438440,,,,,,,,,,,,,,,1713381440.437051,0.200000,0.000000,0.000000,0.000000,0.000000,0.000000,0.200000,0.000000,0.000000,0.000000,0.000000,0.000000,0.000000,0.000000,0.000000,0.000000,0.000000,0.000000,0.000000,0.000000,0.400000,0.000000,0.000000,-0.909920,0.000000,0.000000,49.011454,-0.414784,2.335095,0.058642,0.000000,0.000000,0.000000,0.000000,0.000000,0.000000,0.000000,0.000000,0.000000,0.000000,0.000000,0.000000,0.000000,0.000000,0.000000,0.000000,0.000000,0.000000,0.000000,0.000000,0.000000,0.000000,0.000000,0.000000,1.663084,2.950364,0.000000,0.000000,,,,,,,,,,,,,,,,,,
1713381440.456261,,,,,,,,,0.000000,0.000000,3.000000,0.180000,0.000000,0.000000,,,,,,,,,,,,,,,,,,,,,,,,,,,,,,,,,,,,,,,,,,,,,,,,,,,,,,,,,,,,,,,,,,,,,,,,,,,,,
1713381440.457404,,,,,,,,,,,,,,,,,,,,,,,,,,,,,,,,,,,,,,,,,,,,,,,,,,,,,,,,,,,,,,,,,,,,,,,,,,,,,,,,,,,,,,,,,,,0.240880
1713381440.457943,0.000000,0.000000,3.000000,0.180000,0.000000,0.000000,,,,,,,,,,,,,,,,,,,,,,,,,,,,,,,,,,,,,,,,,,,,,,,,,,,,,,,,,,,,,,,,,,,,,,,,,,,,,,,,,,,,,
1713381440.458166,,,,,,,22242.000000,,,,,,,,,,,,,,,,,,,,,,,,,,,,,,,,,,,,,,,,,,,,,,,,,,,,,,,,,,,,,,,,,,,,,,,,,,,,,,,,,,,,
1713381440.458420,,,,,,,,,,,,,,,,,,,,,,,,,,,,,,,,,,,,,,,,,,,,,,,,,,,,,,,,,,,,,,,,,,,,,,,,,,1713381440.456914,9.643555,-12.207031,59.692383,0.000000,0.000000,0.000000,0.236770,-0.012020,1.253438,0.658692,-0.030243,0.013261,-0.751688,3.428414,-1.604312,97.496818,
1713381440.458929,,,,,,,,0.240880,,,,,,,,,,,,,,,,,,,,,,,,,,,,,,,,,,,,,,,,,,,,,,,,,,,,,,,,,,,,,,,,,,,,,,,,,,,,,,,,,,,
1713381440.459352,,,,,,,,,,,,,,,1713381440.456791,0.200000,0.000000,0.000000,0.000000,0.000000,0.000000,0.200000,0.000000,0.000000,0.000000,0.000000,0.000000,0.000000,0.000000,0.000000,0.000000,0.000000,0.000000,0.000000,0.000000,0.400000,0.000000,0.000000,-0.902987,0.000000,0.000000,50.893019,-0.429668,2.373308,0.102618,0.000000,0.000000,0.000000,0.000000,0.000000,0.000000,0.000000,0.000000,0.000000,0.000000,0.000000,0.000000,0.000000,0.000000,0.000000,0.000000,0.000000,0.000000,0.000000,0.000000,0.000000,0.000000,0.000000,0.000000,1.663616,2.951308,0.000000,0.000000,,,,,,,,,,,,,,,,,,
1713381440.479911,,,,,,,,,,,,,,,1713381440.477149,0.200000,0.000000,0.000000,0.000000,0.000000,0.000000,0.200000,0.000000,0.000000,0.000000,0.000000,0.000000,0.000000,0.000000,0.000000,0.000000,0.000000,0.000000,0.000000,0.000000,0.400000,0.000000,0.000000,-0.893378,0.000000,0.000000,53.398239,-0.449305,2.411199,0.149231,0.000000,0.000000,0.000000,0.000000,0.000000,0.000000,0.000000,0.000000,0.000000,0.000000,0.000000,0.000000,0.000000,0.000000,0.000000,0.000000,0.000000,0.000000,0.000000,0.000000,0.000000,0.000000,0.000000,0.000000,2.147800,2.950769,0.000000,0.000000,,,,,,,,,,,,,,,,,,
1713381440.480789,,,,,,,,,,,,,,,,,,,,,,,,,,,,,,,,,,,,,,,,,,,,,,,,,,,,,,,,,,,,,,,,,,,,,,,,,,1713381440.477316,-19.348145,2.319336,56.213379,0.000000,0.000000,0.000000,0.218215,0.049504,0.913105,0.668096,-0.029898,0.013865,-0.743345,3.473258,-1.485507,96.058462,
1713381440.497739,,,,,,,,,,,,,,,1713381440.496607,0.200000,0.000000,0.000000,0.000000,0.000000,0.000000,0.200000,0.000000,0.000000,0.000000,0.000000,0.000000,0.000000,0.000000,0.000000,0.000000,0.000000,0.000000,0.000000,0.000000,0.400000,0.000000,0.000000,-0.883792,0.000000,0.000000,55.793534,-0.467880,2.445444,0.195340,0.000000,0.000000,0.000000,0.000000,0.000000,0.000000,0.000000,0.000000,0.000000,0.000000,0.000000,0.000000,0.000000,0.000000,0.000000,0.000000,0.000000,0.000000,0.000000,0.000000,0.000000,0.000000,0.000000,0.000000,2.148487,2.951713,0.000000,0.000000,,,,,,,,,,,,,,,,,,
1713381440.498671,,,,,,,,,,,,,,,,,,,,,,,,,,,,,,,,,,,,,,,,,,,,,,,,,,,,,,,,,,,,,,,,,,,,,,,,,,1713381440.496730,-5.676270,-9.277344,55.786133,0.000000,0.000000,0.000000,0.224562,-0.168270,1.357930,0.674987,-0.031976,0.014029,-0.737003,3.662004,-1.615590,94.978097,
1713381440.506643,,,,,,,,,0.000000,0.000000,3.000000,0.180000,0.000000,0.000000,,,,,,,,,,,,,,,,,,,,,,,,,,,,,,,,,,,,,,,,,,,,,,,,,,,,,,,,,,,,,,,,,,,,,,,,,,,,,
1713381440.506908,0.000000,0.000000,3.000000,0.180000,0.000000,0.000000,,,,,,,,,,,,,,,,,,,,,,,,,,,,,,,,,,,,,,,,,,,,,,,,,,,,,,,,,,,,,,,,,,,,,,,,,,,,,,,,,,,,,
1713381440.507148,,,,,,,22242.000000,,,,,,,,,,,,,,,,,,,,,,,,,,,,,,,,,,,,,,,,,,,,,,,,,,,,,,,,,,,,,,,,,,,,,,,,,,,,,,,,,,,,
1713381440.507630,,,,,,,,0.240880,,,,,,,,,,,,,,,,,,,,,,,,,,,,,,,,,,,,,,,,,,,,,,,,,,,,,,,,,,,,,,,,,,,,,,,,,,,,,,,,,,,
1713381440.507900,,,,,,,,,,,,,,,,,,,,,,,,,,,,,,,,,,,,,,,,,,,,,,,,,,,,,,,,,,,,,,,,,,,,,,,,,,,,,,,,,,,,,,,,,,,0.240880
1713381440.517935,,,,,,,,,,,,,,,1713381440.516774,0.200000,0.000000,0.000000,0.000000,0.000000,0.000000,0.200000,0.000000,0.000000,0.000000,0.000000,0.000000,0.000000,0.000000,0.000000,0.000000,0.000000,0.000000,0.000000,0.000000,0.400000,0.000000,0.000000,-0.873449,0.000000,0.000000,58.276043,-0.486915,2.478909,0.244569,0.000000,0.000000,0.000000,0.000000,0.000000,0.000000,0.000000,0.000000,0.000000,0.000000,0.000000,0.000000,0.000000,0.000000,0.000000,0.000000,0.000000,0.000000,0.000000,0.000000,0.000000,0.000000,0.000000,0.000000,2.148389,2.951578,0.000000,0.000000,,,,,,,,,,,,,,,,,,
1713381440.518445,,,,,,,,,,,,,,,,,,,,,,,,,,,,,,,,,,,,,,,,,,,,,,,,,,,,,,,,,,,,,,,,,,,,,,,,,,1713381440.516913,0.305176,7.690430,53.527832,0.000000,0.000000,0.000000,-0.131883,-0.060359,1.537129,0.681713,-0.031509,0.013529,-0.730816,3.598209,-1.582098,93.932163,
1713381440.538154,,,,,,,,,,,,,,,,,,,,,,,,,,,,,,,,,,,,,,,,,,,,,,,,,,,,,,,,,,,,,,,,,,,,,,,,,,1713381440.537363,-14.465332,-4.394531,61.828613,0.000000,0.000000,0.000000,0.451125,0.007512,1.188008,0.688868,-0.032183,0.013891,-0.724039,3.696947,-1.573843,92.801043,
1713381440.538893,,,,,,,,,,,,,,,1713381440.537246,0.200000,0.000000,0.000000,0.000000,0.000000,0.000000,0.200000,0.000000,0.000000,0.000000,0.000000,0.000000,0.000000,0.000000,0.000000,0.000000,0.000000,0.000000,0.000000,0.000000,0.400000,0.000000,0.000000,-0.862532,0.000000,0.000000,60.795742,-0.506002,2.510678,0.295961,0.000000,0.000000,0.000000,0.000000,0.000000,0.000000,0.000000,0.000000,0.000000,0.000000,0.000000,0.000000,0.000000,0.000000,0.000000,0.000000,0.000000,0.000000,0.000000,0.000000,0.000000,0.000000,0.000000,0.000000,2.148193,2.951308,0.000000,0.000000,,,,,,,,,,,,,,,,,,
1713381440.555838,,,,,,,,,0.000000,0.000000,3.000000,0.180000,0.000000,0.000000,,,,,,,,,,,,,,,,,,,,,,,,,,,,,,,,,,,,,,,,,,,,,,,,,,,,,,,,,,,,,,,,,,,,,,,,,,,,,
1713381440.556455,0.000000,0.000000,3.000000,0.180000,0.000000,0.000000,,,,,,,,,,,,,,,,,,,,,,,,,,,,,,,,,,,,,,,,,,,,,,,,,,,,,,,,,,,,,,,,,,,,,,,,,,,,,,,,,,,,,
1713381440.557787,,,,,,,22242.000000,,,,,,,,,,,,,,,,,,,,,,,,,,,,,,,,,,,,,,,,,,,,,,,,,,,,,,,,,,,,,,,,,,,,,,,,,,,,,,,,,,,,
1713381440.558091,,,,,,,,,,,,,,,,,,,,,,,,,,,,,,,,,,,,,,,,,,,,,,,,,,,,,,,,,,,,,,,,,,,,,,,,,,1713381440.556777,13.366699,-6.896973,58.776855,0.000000,0.000000,0.000000,0.347609,-0.068660,0.750020,0.698586,-0.033155,0.012595,-0.714646,3.689738,-1.707190,91.247202,
1713381440.558646,,,,,,,,0.240880,,,,,,,,,,,,,,,,,,,,,,,,,,,,,,,,,,,,,,,,,,,,,,,,,,,,,,,,,,,,,,,,,,,,,,,,,,,,,,,,,,,
1713381440.559066,,,,,,,,,,,,,,,,,,,,,,,,,,,,,,,,,,,,,,,,,,,,,,,,,,,,,,,,,,,,,,,,,,,,,,,,,,,,,,,,,,,,,,,,,,,0.240880
1713381440.559394,,,,,,,,,,,,,,,1713381440.556622,0.200000,0.000000,0.000000,0.000000,0.000000,0.000000,0.200000,0.000000,0.000000,0.000000,0.000000,0.000000,0.000000,0.000000,0.000000,0.000000,0.000000,0.000000,0.000000,0.000000,0.400000,0.000000,0.000000,-0.851813,0.000000,0.000000,63.181112,-0.523846,2.538586,0.345887,0.000000,0.000000,0.000000,0.000000,0.000000,0.000000,0.000000,0.000000,0.000000,0.000000,0.000000,0.000000,0.000000,0.000000,0.000000,0.000000,0.000000,0.000000,0.000000,0.000000,0.000000,0.000000,0.000000,0.000000,2.148684,2.951983,0.000000,0.000000,,,,,,,,,,,,,,,,,,
1713381440.577957,,,,,,,,,,,,,,,1713381440.576607,0.200000,0.000000,0.000000,0.000000,0.000000,0.000000,0.200000,0.000000,0.000000,0.000000,0.000000,0.000000,0.000000,0.000000,0.000000,0.000000,0.000000,0.000000,0.000000,0.000000,0.400000,0.000000,0.000000,-0.840370,0.000000,0.000000,65.641630,-0.542014,2.565205,0.398540,0.000000,0.000000,0.000000,0.000000,0.000000,0.000000,0.000000,0.000000,0.000000,0.000000,0.000000,0.000000,0.000000,0.000000,0.000000,0.000000,0.000000,0.000000,0.000000,0.000000,0.000000,0.000000,0.000000,0.000000,2.148782,2.952118,0.000000,0.000000,,,,,,,,,,,,,,,,,,
1713381440.578597,,,,,,,,,,,,,,,,,,,,,,,,,,,,,,,,,,,,,,,,,,,,,,,,,,,,,,,,,,,,,,,,,,,,,,,,,,1713381440.576758,-5.737305,-0.854492,61.767578,0.000000,0.000000,0.000000,0.047316,0.120793,0.481465,0.705969,-0.032068,0.012265,-0.707410,3.592224,-1.607479,90.066488,
1713381440.597685,,,,,,,,,,,,,,,,,,,,,,,,,,,,,,,,,,,,,,,,,,,,,,,,,,,,,,,,,,,,,,,,,,,,,,,,,,1713381440.596797,-0.976563,9.826660,58.959961,0.000000,0.000000,0.000000,0.460402,-0.098934,1.568379,0.713300,-0.034018,0.012463,-0.699922,3.784643,-1.710006,88.858753,
1713381440.598300,,,,,,,,,,,,,,,1713381440.596663,0.200000,0.000000,0.000000,0.000000,0.000000,0.000000,0.200000,0.000000,0.000000,0.000000,0.000000,0.000000,0.000000,0.000000,0.000000,0.000000,0.000000,0.000000,0.000000,0.000000,0.400000,0.000000,0.000000,-0.828495,0.000000,0.000000,68.111205,-0.559997,2.589628,0.452485,0.000000,0.000000,0.000000,0.000000,0.000000,0.000000,0.000000,0.000000,0.000000,0.000000,0.000000,0.000000,0.000000,0.000000,0.000000,0.000000,0.000000,0.000000,0.000000,0.000000,0.000000,0.000000,0.000000,0.000000,2.149076,2.952522,0.000000,0.000000,,,,,,,,,,,,,,,,,,
1713381440.605423,,,,,,,,,0.000000,0.000000,3.000000,0.180000,0.000000,0.000000,,,,,,,,,,,,,,,,,,,,,,,,,,,,,,,,,,,,,,,,,,,,,,,,,,,,,,,,,,,,,,,,,,,,,,,,,,,,,
1713381440.605898,0.000000,0.000000,3.000000,0.180000,0.000000,0.000000,,,,,,,,,,,,,,,,,,,,,,,,,,,,,,,,,,,,,,,,,,,,,,,,,,,,,,,,,,,,,,,,,,,,,,,,,,,,,,,,,,,,,
1713381440.606651,,,,,,,22242.000000,,,,,,,,,,,,,,,,,,,,,,,,,,,,,,,,,,,,,,,,,,,,,,,,,,,,,,,,,,,,,,,,,,,,,,,,,,,,,,,,,,,,
1713381440.607125,,,,,,,,0.240880,,,,,,,,,,,,,,,,,,,,,,,,,,,,,,,,,,,,,,,,,,,,,,,,,,,,,,,,,,,,,,,,,,,,,,,,,,,,,,,,,,,
1713381440.607507,,,,,,,,,,,,,,,,,,,,,,,,,,,,,,,,,,,,,,,,,,,,,,,,,,,,,,,,,,,,,,,,,,,,,,,,,,,,,,,,,,,,,,,,,,,0.240880
1713381440.617627,,,,,,,,,,,,,,,,,,,,,,,,,,,,,,,,,,,,,,,,,,,,,,,,,,,,,,,,,,,,,,,,,,,,,,,,,,1713381440.616724,2.075195,7.324219,61.401367,0.000000,0.000000,0.000000,0.265090,0.150578,0.688496,0.722824,-0.032356,0.011036,-0.690187,3.556612,-1.645116,87.302631,
1713381440.618043,,,,,,,,,,,,,,,1713381440.616547,0.200000,0.000000,0.000000,0.000000,0.000000,0.000000,0.200000,0.000000,0.000000,0.000000,0.000000,0.000000,0.000000,0.000000,0.000000,0.000000,0.000000,0.000000,0.000000,0.000000,0.400000,0.000000,0.000000,-0.816343,0.000000,0.000000,70.559239,-0.577567,2.611512,0.506953,0.000000,0.000000,0.000000,0.000000,0.000000,0.000000,0.000000,0.000000,0.000000,0.000000,0.000000,0.000000,0.000000,0.000000,0.000000,0.000000,0.000000,0.000000,0.000000,0.000000,0.000000,0.000000,0.000000,0.000000,2.148782,2.952118,0.000000,0.000000,,,,,,,,,,,,,,,,,,
1713381440.637597,,,,,,,,,,,,,,,,,,,,,,,,,,,,,,,,,,,,,,,,,,,,,,,,,,,,,,,,,,,,,,,,,,,,,,,,,,1713381440.636802,-2.258301,8.117676,65.307617,0.000000,0.000000,0.000000,0.830520,-0.032039,0.938984,0.730306,-0.033999,0.011891,-0.682170,3.779130,-1.662770,86.041416,
1713381440.638601,,,,,,,,,,,,,,,1713381440.636662,0.200000,0.000000,0.000000,0.000000,0.000000,0.000000,0.200000,0.000000,0.000000,0.000000,0.000000,0.000000,0.000000,0.000000,0.000000,0.000000,0.000000,0.000000,0.000000,0.000000,0.400000,0.000000,0.000000,-0.803673,0.000000,0.000000,73.035455,-0.595071,2.631274,0.562943,0.000000,0.000000,0.000000,0.000000,0.000000,0.000000,0.000000,0.000000,0.000000,0.000000,0.000000,0.000000,0.000000,0.000000,0.000000,0.000000,0.000000,0.000000,0.000000,0.000000,0.000000,0.000000,0.000000,0.000000,2.148586,2.951848,0.000000,0.000000,,,,,,,,,,,,,,,,,,
1713381440.659875,,,,,,,,,,,,,,,1713381440.651713,0.200000,0.000000,0.000000,0.000000,0.000000,0.000000,0.200000,0.000000,0.000000,0.000000,0.000000,0.000000,0.000000,0.000000,0.000000,0.000000,0.000000,0.000000,0.000000,0.000000,0.400000,0.000000,0.000000,-0.793946,0.000000,0.000000,74.888388,-0.607988,2.644238,0.605440,0.000000,0.000000,0.000000,0.000000,0.000000,0.000000,0.000000,0.000000,0.000000,0.000000,0.000000,0.000000,0.000000,0.000000,0.000000,0.000000,0.000000,0.000000,0.000000,0.000000,0.000000,0.000000,0.000000,0.000000,2.148684,2.951983,0.000000,0.000000,,,,,,,,,,,,,,,,,,
1713381440.661172,,,,,,,,,0.000000,0.000000,3.000000,0.180000,0.000000,0.000000,,,,,,,,,,,,,,,,,,,,,,,,,,,,,,,,,,,,,,,,,,,,,,,,,,,,,,,,,,,,,,,,,,,,,,,,,,,,,
1713381440.661466,0.000000,0.000000,3.000000,0.180000,0.000000,0.000000,,,,,,,,,,,,,,,,,,,,,,,,,,,,,,,,,,,,,,,,,,,,,,,,,,,,,,,,,,,,,,,,,,,,,,,,,,,,,,,,,,,,,
1713381440.661860,,,,,,,22242.000000,,,,,,,,,,,,,,,,,,,,,,,,,,,,,,,,,,,,,,,,,,,,,,,,,,,,,,,,,,,,,,,,,,,,,,,,,,,,,,,,,,,,
1713381440.662582,,,,,,,,,,,,,,,,,,,,,,,,,,,,,,,,,,,,,,,,,,,,,,,,,,,,,,,,,,,,,,,,,,,,,,,,,,1713381440.660213,18.493652,-3.784180,68.908691,0.000000,0.000000,0.000000,0.850539,-0.025203,0.476094,0.737904,-0.033615,0.010408,-0.673988,3.650408,-1.716385,84.761357,
1713381440.663417,,,,,,,,0.240880,,,,,,,,,,,,,,,,,,,,,,,,,,,,,,,,,,,,,,,,,,,,,,,,,,,,,,,,,,,,,,,,,,,,,,,,,,,,,,,,,,,
1713381440.664294,,,,,,,,,,,,,,,,,,,,,,,,,,,,,,,,,,,,,,,,,,,,,,,,,,,,,,,,,,,,,,,,,,,,,,,,,,,,,,,,,,,,,,,,,,,0.240880
1713381440.674942,,,,,,,,,,,,,,,,,,,,,,,,,,,,,,,,,,,,,,,,,,,,,,,,,,,,,,,,,,,,,,,,,,,,,,,,,,1713381440.672568,-12.023926,-9.460449,73.242188,0.000000,0.000000,0.000000,0.316848,-0.011531,1.354512,0.748069,-0.034185,0.010037,-0.662663,3.696841,-1.735654,83.015041,
1713381440.678697,,,,,,,,,,,,,,,1713381440.672416,0.200000,0.000000,0.000000,0.000000,0.000000,0.000000,0.200000,0.000000,0.000000,0.000000,0.000000,0.000000,0.000000,0.000000,0.000000,0.000000,0.000000,0.000000,0.000000,0.000000,0.400000,0.000000,0.000000,-0.780228,0.000000,0.000000,77.437138,-0.625496,2.660170,0.664442,0.000000,0.000000,0.000000,0.000000,0.000000,0.000000,0.000000,0.000000,0.000000,0.000000,0.000000,0.000000,0.000000,0.000000,0.000000,0.000000,0.000000,0.000000,0.000000,0.000000,0.000000,0.000000,0.000000,0.000000,2.148684,2.951983,0.000000,0.000000,,,,,,,,,,,,,,,,,,
1713381440.695002,,,,,,,,,,,,,,,1713381440.693049,0.200000,0.000000,0.000000,0.000000,0.000000,0.000000,0.200000,0.000000,0.000000,0.000000,0.000000,0.000000,0.000000,0.000000,0.000000,0.000000,0.000000,0.000000,0.000000,0.000000,0.400000,0.000000,0.000000,-0.766172,0.000000,0.000000,79.977180,-0.642635,2.673418,0.723889,0.000000,0.000000,0.000000,0.000000,0.000000,0.000000,0.000000,0.000000,0.000000,0.000000,0.000000,0.000000,0.000000,0.000000,0.000000,0.000000,0.000000,0.000000,0.000000,0.000000,0.000000,0.000000,0.000000,0.000000,2.148586,2.951848,0.000000,0.000000,,,,,,,,,,,,,,,,,,
1713381440.698965,,,,,,,,,,,,,,,,,,,,,,,,,,,,,,,,,,,,,,,,,,,,,,,,,,,,,,,,,,,,,,,,,,,,,,,,,,1713381440.698491,-7.629395,-13.671875,70.922852,0.000000,0.000000,0.000000,0.053664,0.091496,0.870625,0.755690,-0.034800,0.008659,-0.653947,3.666877,-1.858290,81.683926,
1713381440.705889,,,,,,,,,0.000000,0.000000,3.000000,0.180000,0.000000,0.000000,,,,,,,,,,,,,,,,,,,,,,,,,,,,,,,,,,,,,,,,,,,,,,,,,,,,,,,,,,,,,,,,,,,,,,,,,,,,,
1713381440.706375,0.000000,0.000000,3.000000,0.180000,0.000000,0.000000,,,,,,,,,,,,,,,,,,,,,,,,,,,,,,,,,,,,,,,,,,,,,,,,,,,,,,,,,,,,,,,,,,,,,,,,,,,,,,,,,,,,,
1713381440.706725,,,,,,,22242.000000,,,,,,,,,,,,,,,,,,,,,,,,,,,,,,,,,,,,,,,,,,,,,,,,,,,,,,,,,,,,,,,,,,,,,,,,,,,,,,,,,,,,
1713381440.706998,,,,,,,,0.240880,,,,,,,,,,,,,,,,,,,,,,,,,,,,,,,,,,,,,,,,,,,,,,,,,,,,,,,,,,,,,,,,,,,,,,,,,,,,,,,,,,,
1713381440.707755,,,,,,,,,,,,,,,,,,,,,,,,,,,,,,,,,,,,,,,,,,,,,,,,,,,,,,,,,,,,,,,,,,,,,,,,,,,,,,,,,,,,,,,,,,,0.240880
1713381440.713501,,,,,,,,,,,,,,,,,,,,,,,,,,,,,,,,,,,,,,,,,,,,,,,,,,,,,,,,,,,,,,,,,,,,,,,,,,1713381440.712036,4.821777,23.559570,65.673828,0.000000,0.000000,0.000000,-0.146531,-0.220516,1.426289,0.763176,-0.034902,0.011166,-0.645151,3.882268,-1.603988,80.364627,
1713381440.714226,,,,,,,,,,,,,,,1713381440.711851,0.200000,0.000000,0.000000,0.000000,0.000000,0.000000,0.200000,0.000000,0.000000,0.000000,0.000000,0.000000,0.000000,0.000000,0.000000,0.000000,0.000000,0.000000,0.000000,0.000000,0.400000,0.000000,0.000000,-0.753035,0.000000,0.000000,82.292008,-0.657980,2.683078,0.778548,0.000000,0.000000,0.000000,0.000000,0.000000,0.000000,0.000000,0.000000,0.000000,0.000000,0.000000,0.000000,0.000000,0.000000,0.000000,0.000000,0.000000,0.000000,0.000000,0.000000,0.000000,0.000000,0.000000,0.000000,2.148782,2.952118,0.000000,0.000000,,,,,,,,,,,,,,,,,,
1713381440.739315,,,,,,,,,,,,,,,1713381440.738173,0.200000,0.000000,0.000000,0.000000,0.000000,0.000000,0.200000,0.000000,0.000000,0.000000,0.000000,0.000000,0.000000,0.000000,0.000000,0.000000,0.000000,0.000000,0.000000,0.000000,0.400000,0.000000,0.000000,-0.734135,0.000000,0.000000,85.531729,-0.679004,2.693497,0.855529,0.000000,0.000000,0.000000,0.000000,0.000000,0.000000,0.000000,0.000000,0.000000,0.000000,0.000000,0.000000,0.000000,0.000000,0.000000,0.000000,0.000000,0.000000,0.000000,0.000000,0.000000,0.000000,0.000000,0.000000,2.148193,2.951308,0.000000,0.000000,,,,,,,,,,,,,,,,,,
1713381440.739963,,,,,,,,,,,,,,,,,,,,,,,,,,,,,,,,,,,,,,,,,,,,,,,,,,,,,,,,,,,,,,,,,,,,,,,,,,1713381440.738357,-4.150391,-9.460449,76.660156,0.000000,0.000000,0.000000,0.291945,-0.026180,1.453633,0.773418,-0.034877,0.008692,-0.632876,3.725802,-1.759246,78.528638,
1713381440.753242,,,,,,,,,,,,,,,1713381440.751828,0.200000,0.000000,0.000000,0.000000,0.000000,0.000000,0.200000,0.000000,0.000000,0.000000,0.000000,0.000000,0.000000,0.000000,0.000000,0.000000,0.000000,0.000000,0.000000,0.000000,0.400000,0.000000,0.000000,-0.724096,0.000000,0.000000,87.212654,-0.689700,2.696637,0.895712,0.000000,0.000000,0.000000,0.000000,0.000000,0.000000,0.000000,0.000000,0.000000,0.000000,0.000000,0.000000,0.000000,0.000000,0.000000,0.000000,0.000000,0.000000,0.000000,0.000000,0.000000,0.000000,0.000000,0.000000,2.148487,2.951713,0.000000,0.000000,,,,,,,,,,,,,,,,,,
1713381440.756198,,,,,,,,,0.000000,0.000000,3.000000,0.180000,0.000000,0.000000,,,,,,,,,,,,,,,,,,,,,,,,,,,,,,,,,,,,,,,,,,,,,,,,,,,,,,,,,,,,,,,,,,,,,,,,,,,,,
1713381440.756566,0.000000,0.000000,3.000000,0.180000,0.000000,0.000000,,,,,,,,,,,,,,,,,,,,,,,,,,,,,,,,,,,,,,,,,,,,,,,,,,,,,,,,,,,,,,,,,,,,,,,,,,,,,,,,,,,,,
1713381440.756955,,,,,,,22242.000000,,,,,,,,,,,,,,,,,,,,,,,,,,,,,,,,,,,,,,,,,,,,,,,,,,,,,,,,,,,,,,,,,,,,,,,,,,,,,,,,,,,,
1713381440.757197,,,,,,,,0.240880,,,,,,,,,,,,,,,,,,,,,,,,,,,,,,,,,,,,,,,,,,,,,,,,,,,,,,,,,,,,,,,,,,,,,,,,,,,,,,,,,,,
1713381440.757935,,,,,,,,,,,,,,,,,,,,,,,,,,,,,,,,,,,,,,,,,,,,,,,,,,,,,,,,,,,,,,,,,,,,,,,,,,,,,,,,,,,,,,,,,,,0.240880
1713381440.758189,,,,,,,,,,,,,,,,,,,,,,,,,,,,,,,,,,,,,,,,,,,,,,,,,,,,,,,,,,,,,,,,,,,,,,,,,,1713381440.757231,-3.906250,3.784180,77.148438,0.000000,0.000000,0.000000,0.398391,-0.089656,1.690938,0.780942,-0.036338,0.009794,-0.623468,3.956547,-1.719902,77.145095,
1713381440.780478,,,,,,,,,,,,,,,1713381440.777354,0.200000,0.000000,0.000000,0.000000,0.000000,0.000000,0.200000,0.000000,0.000000,0.000000,0.000000,0.000000,0.000000,0.000000,0.000000,0.000000,0.000000,0.000000,0.000000,0.000000,0.400000,0.000000,0.000000,-0.704914,0.000000,0.000000,90.354835,-0.709293,2.700301,0.970967,0.000000,0.000000,0.000000,0.000000,0.000000,0.000000,0.000000,0.000000,0.000000,0.000000,0.000000,0.000000,0.000000,0.000000,0.000000,0.000000,0.000000,0.000000,0.000000,0.000000,0.000000,0.000000,0.000000,0.000000,2.148389,2.951578,0.000000,0.000000,,,,,,,,,,,,,,,,,,
1713381440.781421,,,,,,,,,,,,,,,,,,,,,,,,,,,,,,,,,,,,,,,,,,,,,,,,,,,,,,,,,,,,,,,,,,,,,,,,,,1713381440.777500,18.432617,10.131836,71.655273,0.000000,0.000000,0.000000,0.521438,0.060734,0.599629,0.788331,-0.033792,0.009042,-0.614256,3.693075,-1.561939,75.800067,
1713381440.797723,,,,,,,,,,,,,,,,,,,,,,,,,,,,,,,,,,,,,,,,,,,,,,,,,,,,,,,,,,,,,,,,,,,,,,,,,,1713381440.796803,-6.408691,-6.652832,79.650879,0.000000,0.000000,0.000000,0.515090,-0.229793,0.806172,0.798250,-0.034236,0.007530,-0.601305,3.654564,-1.670414,73.926587,
1713381440.798328,,,,,,,,,,,,,,,1713381440.796674,0.200000,0.000000,0.000000,0.000000,0.000000,0.000000,0.200000,0.000000,0.000000,0.000000,0.000000,0.000000,0.000000,0.000000,0.000000,0.000000,0.000000,0.000000,0.000000,0.000000,0.400000,0.000000,0.000000,-0.690043,0.000000,0.000000,92.733020,-0.723769,2.699948,1.027991,0.000000,0.000000,0.000000,0.000000,0.000000,0.000000,0.000000,0.000000,0.000000,0.000000,0.000000,0.000000,0.000000,0.000000,0.000000,0.000000,0.000000,0.000000,0.000000,0.000000,0.000000,0.000000,0.000000,0.000000,2.148389,2.951578,0.000000,0.000000,,,,,,,,,,,,,,,,,,
1713381440.807325,,,,,,,,,0.000000,0.000000,3.000000,0.180000,0.000000,0.000000,,,,,,,,,,,,,,,,,,,,,,,,,,,,,,,,,,,,,,,,,,,,,,,,,,,,,,,,,,,,,,,,,,,,,,,,,,,,,
1713381440.807871,0.000000,0.000000,3.000000,0.180000,0.000000,0.000000,,,,,,,,,,,,,,,,,,,,,,,,,,,,,,,,,,,,,,,,,,,,,,,,,,,,,,,,,,,,,,,,,,,,,,,,,,,,,,,,,,,,,
1713381440.808800,,,,,,,22242.000000,,,,,,,,,,,,,,,,,,,,,,,,,,,,,,,,,,,,,,,,,,,,,,,,,,,,,,,,,,,,,,,,,,,,,,,,,,,,,,,,,,,,
1713381440.809788,,,,,,,,0.240880,,,,,,,,,,,,,,,,,,,,,,,,,,,,,,,,,,,,,,,,,,,,,,,,,,,,,,,,,,,,,,,,,,,,,,,,,,,,,,,,,,,
1713381440.810222,,,,,,,,,,,,,,,,,,,,,,,,,,,,,,,,,,,,,,,,,,,,,,,,,,,,,,,,,,,,,,,,,,,,,,,,,,,,,,,,,,,,,,,,,,,0.240880
1713381440.816287,,,,,,,,,,,,,,,1713381440.814818,0.200000,0.000000,0.000000,0.000000,0.000000,0.000000,0.200000,0.000000,0.000000,0.000000,0.000000,0.000000,0.000000,0.000000,0.000000,0.000000,0.000000,0.000000,0.000000,0.000000,0.400000,0.000000,0.000000,-0.675805,0.000000,0.000000,94.966607,-0.737080,2.697394,1.081488,0.000000,0.000000,0.000000,0.000000,0.000000,0.000000,0.000000,0.000000,0.000000,0.000000,0.000000,0.000000,0.000000,0.000000,0.000000,0.000000,0.000000,0.000000,0.000000,0.000000,0.000000,0.000000,0.000000,0.000000,2.148586,2.951848,0.000000,0.000000,,,,,,,,,,,,,,,,,,
1713381440.820574,,,,,,,,,,,,,,,,,,,,,,,,,,,,,,,,,,,,,,,,,,,,,,,,,,,,,,,,,,,,,,,,,,,,,,,,,,1713381440.820249,-7.385254,-1.831055,83.618164,0.000000,0.000000,0.000000,0.664504,0.055363,0.909688,0.805822,-0.035509,0.008624,-0.591029,3.867479,-1.608843,72.461894,
1713381440.837527,,,,,,,,,,,,,,,,,,,,,,,,,,,,,,,,,,,,,,,,,,,,,,,,,,,,,,,,,,,,,,,,,,,,,,,,,,1713381440.836885,0.183105,-12.512207,81.848145,0.000000,0.000000,0.000000,0.439406,0.077336,1.049336,0.813187,-0.036635,0.009017,-0.580779,4.018821,-1.598109,71.012889,
1713381440.838099,,,,,,,,,,,,,,,1713381440.836679,0.200000,0.000000,0.000000,0.000000,0.000000,0.000000,0.200000,0.000000,0.000000,0.000000,0.000000,0.000000,0.000000,0.000000,0.000000,0.000000,0.000000,0.000000,0.000000,0.000000,0.400000,0.000000,0.000000,-0.658310,0.000000,0.000000,97.657818,-0.752747,2.691808,1.145776,0.000000,0.000000,0.000000,0.000000,0.000000,0.000000,0.000000,0.000000,0.000000,0.000000,0.000000,0.000000,0.000000,0.000000,0.000000,0.000000,0.000000,0.000000,0.000000,0.000000,0.000000,0.000000,0.000000,0.000000,2.148586,2.951848,0.000000,0.000000,,,,,,,,,,,,,,,,,,
1713381440.856008,,,,,,,,,0.000000,0.000000,3.000000,0.180000,0.000000,0.000000,,,,,,,,,,,,,,,,,,,,,,,,,,,,,,,,,,,,,,,,,,,,,,,,,,,,,,,,,,,,,,,,,,,,,,,,,,,,,
1713381440.863748,0.000000,0.000000,3.000000,0.180000,0.000000,0.000000,,,,,,,,,,,,,,,,,,,,,,,,,,,,,,,,,,,,,,,,,,,,,,,,,,,,,,,,,,,,,,,,,,,,,,,,,,,,,,,,,,,,,
1713381440.864426,,,,,,,,,,,,,,,,,,,,,,,,,,,,,,,,,,,,,,,,,,,,,,,,,,,,,,,,,,,,,,,,,,,,,,,,,,,,,,,,,,,,,,,,,,,0.240880
1713381440.865163,,,,,,,,,,,,,,,1713381440.855019,0.200000,0.000000,0.000000,0.000000,0.000000,0.000000,0.200000,0.000000,0.000000,0.000000,0.000000,0.000000,0.000000,0.000000,0.000000,0.000000,0.000000,0.000000,0.000000,0.000000,0.400000,0.000000,0.000000,-0.643352,0.000000,0.000000,99.915498,-0.765570,2.684594,1.199429,0.000000,0.000000,0.000000,0.000000,0.000000,0.000000,0.000000,0.000000,0.000000,0.000000,0.000000,0.000000,0.000000,0.000000,0.000000,0.000000,0.000000,0.000000,0.000000,0.000000,0.000000,0.000000,0.000000,0.000000,2.148586,2.951848,0.000000,0.000000,,,,,,,,,,,,,,,,,,
1713381440.865744,,,,,,,22242.000000,,,,,,,,,,,,,,,,,,,,,,,,,,,,,,,,,,,,,,,,,,,,,,,,,,,,,,,,,,,,,,,,,,,,,,,,,,,,,,,,,,,,
1713381440.866050,,,,,,,,,,,,,,,,,,,,,,,,,,,,,,,,,,,,,,,,,,,,,,,,,,,,,,,,,,,,,,,,,,,,,,,,,,1713381440.855230,-3.295898,7.934570,73.608398,0.000000,0.000000,0.000000,0.162062,-0.022762,1.317891,0.822412,-0.036775,0.008705,-0.567636,4.036828,-1.571897,69.172112,
1713381440.866535,,,,,,,,0.240880,,,,,,,,,,,,,,,,,,,,,,,,,,,,,,,,,,,,,,,,,,,,,,,,,,,,,,,,,,,,,,,,,,,,,,,,,,,,,,,,,,,
1713381440.878321,,,,,,,,,,,,,,,1713381440.871695,0.200000,0.000000,0.000000,0.000000,0.000000,0.000000,0.200000,0.000000,0.000000,0.000000,0.000000,0.000000,0.000000,0.000000,0.000000,0.000000,0.000000,0.000000,0.000000,0.000000,0.400000,0.000000,0.000000,-0.629536,0.000000,0.000000,101.968239,-0.776972,2.676118,1.247915,0.000000,0.000000,0.000000,0.000000,0.000000,0.000000,0.000000,0.000000,0.000000,0.000000,0.000000,0.000000,0.000000,0.000000,0.000000,0.000000,0.000000,0.000000,0.000000,0.000000,0.000000,0.000000,0.000000,0.000000,2.148389,2.951578,0.000000,0.000000,,,,,,,,,,,,,,,,,,
1713381440.880445,,,,,,,,,,,,,,,,,,,,,,,,,,,,,,,,,,,,,,,,,,,,,,,,,,,,,,,,,,,,,,,,,,,,,,,,,,1713381440.877125,12.451172,4.089355,71.350098,0.000000,0.000000,0.000000,-0.042039,0.020695,1.294941,0.829123,-0.036087,0.009901,-0.557813,4.066083,-1.366188,67.814858,
1713381440.897156,,,,,,,,,,,,,,,,,,,,,,,,,,,,,,,,,,,,,,,,,,,,,,,,,,,,,,,,,,,,,,,,,,,,,,,,,,1713381440.895384,11.291504,-5.493164,73.913574,0.000000,0.000000,0.000000,-0.020066,-0.024715,0.887715,0.835792,-0.035184,0.009757,-0.547830,3.986407,-1.274399,66.442304,
1713381440.900361,,,,,,,,,,,,,,,1713381440.895175,0.200000,0.000000,0.000000,0.000000,0.000000,0.000000,0.200000,0.000000,0.000000,0.000000,0.000000,0.000000,0.000000,0.000000,0.000000,0.000000,0.000000,0.000000,0.000000,0.000000,0.400000,0.000000,0.000000,-0.609742,0.000000,0.000000,104.858298,-0.792600,2.661748,1.315707,0.000000,0.000000,0.000000,0.000000,0.000000,0.000000,0.000000,0.000000,0.000000,0.000000,0.000000,0.000000,0.000000,0.000000,0.000000,0.000000,0.000000,0.000000,0.000000,0.000000,0.000000,0.000000,0.000000,0.000000,2.148291,2.951443,0.000000,0.000000,,,,,,,,,,,,,,,,,,
1713381440.905567,,,,,,,,,0.000000,0.000000,3.000000,0.180000,0.000000,0.000000,,,,,,,,,,,,,,,,,,,,,,,,,,,,,,,,,,,,,,,,,,,,,,,,,,,,,,,,,,,,,,,,,,,,,,,,,,,,,
1713381440.906677,0.000000,0.000000,3.000000,0.180000,0.000000,0.000000,,,,,,,,,,,,,,,,,,,,,,,,,,,,,,,,,,,,,,,,,,,,,,,,,,,,,,,,,,,,,,,,,,,,,,,,,,,,,,,,,,,,,
1713381440.906996,,,,,,,22242.000000,,,,,,,,,,,,,,,,,,,,,,,,,,,,,,,,,,,,,,,,,,,,,,,,,,,,,,,,,,,,,,,,,,,,,,,,,,,,,,,,,,,,
1713381440.907235,,,,,,,,0.240880,,,,,,,,,,,,,,,,,,,,,,,,,,,,,,,,,,,,,,,,,,,,,,,,,,,,,,,,,,,,,,,,,,,,,,,,,,,,,,,,,,,
1713381440.910059,,,,,,,,,,,,,,,,,,,,,,,,,,,,,,,,,,,,,,,,,,,,,,,,,,,,,,,,,,,,,,,,,,,,,,,,,,,,,,,,,,,,,,,,,,,0.240880
1713381440.914636,,,,,,,,,,,,,,,1713381440.912037,0.200000,0.000000,0.000000,0.000000,0.000000,0.000000,0.200000,0.000000,0.000000,0.000000,0.000000,0.000000,0.000000,0.000000,0.000000,0.000000,0.000000,0.000000,0.000000,0.000000,0.400000,0.000000,0.000000,-0.595286,0.000000,0.000000,106.933893,-0.803514,2.648985,1.363812,0.000000,0.000000,0.000000,0.000000,0.000000,0.000000,0.000000,0.000000,0.000000,0.000000,0.000000,0.000000,0.000000,0.000000,0.000000,0.000000,0.000000,0.000000,0.000000,0.000000,0.000000,0.000000,0.000000,0.000000,2.148389,2.951578,0.000000,0.000000,,,,,,,,,,,,,,,,,,
1713381440.918140,,,,,,,,,,,,,,,,,,,,,,,,,,,,,,,,,,,,,,,,,,,,,,,,,,,,,,,,,,,,,,,,,,,,,,,,,,1713381440.917550,-6.042480,-6.591797,79.040527,0.000000,0.000000,0.000000,0.410109,-0.034969,1.018574,0.842654,-0.036807,0.008154,-0.537135,4.060744,-1.478288,64.977085,
1713381440.937938,,,,,,,,,,,,,,,1713381440.936737,0.200000,0.000000,0.000000,0.000000,0.000000,0.000000,0.200000,0.000000,0.000000,0.000000,0.000000,0.000000,0.000000,0.000000,0.000000,0.000000,0.000000,0.000000,0.000000,0.000000,0.400000,0.000000,0.000000,-0.573763,0.000000,0.000000,109.973881,-0.819021,2.627754,1.433546,0.000000,0.000000,0.000000,0.000000,0.000000,0.000000,0.000000,0.000000,0.000000,0.000000,0.000000,0.000000,0.000000,0.000000,0.000000,0.000000,0.000000,0.000000,0.000000,0.000000,0.000000,0.000000,0.000000,0.000000,2.148095,2.951173,0.000000,0.000000,,,,,,,,,,,,,,,,,,
1713381440.938467,,,,,,,,,,,,,,,,,,,,,,,,,,,,,,,,,,,,,,,,,,,,,,,,,,,,,,,,,,,,,,,,,,,,,,,,,,1713381440.936900,-6.347656,4.943848,72.082520,0.000000,0.000000,0.000000,0.308547,0.096379,1.331074,0.851447,-0.037251,0.007691,-0.523059,4.100421,-1.482494,63.073252,
1713381440.957025,,,,,,,,,0.000000,0.000000,3.000000,0.180000,0.000000,0.000000,,,,,,,,,,,,,,,,,,,,,,,,,,,,,,,,,,,,,,,,,,,,,,,,,,,,,,,,,,,,,,,,,,,,,,,,,,,,,
1713381440.957911,0.000000,0.000000,3.000000,0.180000,0.000000,0.000000,,,,,,,,,,,,,,,,,,,,,,,,,,,,,,,,,,,,,,,,,,,,,,,,,,,,,,,,,,,,,,,,,,,,,,,,,,,,,,,,,,,,,
1713381440.958254,,,,,,,22242.000000,,,,,,,,,,,,,,,,,,,,,,,,,,,,,,,,,,,,,,,,,,,,,,,,,,,,,,,,,,,,,,,,,,,,,,,,,,,,,,,,,,,,
1713381440.958546,,,,,,,,0.240880,,,,,,,,,,,,,,,,,,,,,,,,,,,,,,,,,,,,,,,,,,,,,,,,,,,,,,,,,,,,,,,,,,,,,,,,,,,,,,,,,,,
1713381440.959820,,,,,,,,,,,,,,,,,,,,,,,,,,,,,,,,,,,,,,,,,,,,,,,,,,,,,,,,,,,,,,,,,,,,,,,,,,,,,,,,,,,,,,,,,,,0.240880
1713381440.960094,,,,,,,,,,,,,,,1713381440.956769,0.200000,0.000000,0.000000,0.000000,0.000000,0.000000,0.200000,0.000000,0.000000,0.000000,0.000000,0.000000,0.000000,0.000000,0.000000,0.000000,0.000000,0.000000,0.000000,0.000000,0.400000,0.000000,0.000000,-0.556012,0.000000,0.000000,112.439060,-0.831174,2.607562,1.489101,0.000000,0.000000,0.000000,0.000000,0.000000,0.000000,0.000000,0.000000,0.000000,0.000000,0.000000,0.000000,0.000000,0.000000,0.000000,0.000000,0.000000,0.000000,0.000000,0.000000,0.000000,0.000000,0.000000,0.000000,2.147800,2.950769,0.000000,0.000000,,,,,,,,,,,,,,,,,,
1713381440.960987,,,,,,,,,,,,,,,,,,,,,,,,,,,,,,,,,,,,,,,,,,,,,,,,,,,,,,,,,,,,,,,,,,,,,,,,,,1713381440.956917,2.807617,-9.582520,68.603516,0.000000,0.000000,0.000000,0.549270,-0.009090,0.847676,0.857560,-0.038744,0.006210,-0.512886,4.177807,-1.667020,61.704455,
1713381440.977748,,,,,,,,,,,,,,,1713381440.976609,0.200000,0.000000,0.000000,0.000000,0.000000,0.000000,0.200000,0.000000,0.000000,0.000000,0.000000,0.000000,0.000000,0.000000,0.000000,0.000000,0.000000,0.000000,0.000000,0.000000,0.400000,0.000000,0.000000,-0.538180,0.000000,0.000000,114.880406,-0.842830,2.585217,1.543208,0.000000,0.000000,0.000000,0.000000,0.000000,0.000000,0.000000,0.000000,0.000000,0.000000,0.000000,0.000000,0.000000,0.000000,0.000000,0.000000,0.000000,0.000000,0.000000,0.000000,0.000000,0.000000,0.000000,0.000000,2.147702,2.950634,0.000000,0.000000,,,,,,,,,,,,,,,,,,
1713381440.978349,,,,,,,,,,,,,,,,,,,,,,,,,,,,,,,,,,,,,,,,,,,,,,,,,,,,,,,,,,,,,,,,,,,,,,,,,,1713381440.976729,-3.601074,3.601074,69.519043,0.000000,0.000000,0.000000,-0.109910,0.101750,0.805195,0.863541,-0.036561,0.006700,-0.502908,4.008474,-1.444157,60.380662,
1713381441.001742,,,,,,,,,,,,,,,1713381440.999813,0.200000,0.000000,0.000000,0.000000,0.000000,0.000000,0.200000,0.000000,0.000000,0.000000,0.000000,0.000000,0.000000,0.000000,0.000000,0.000000,0.000000,0.000000,0.000000,0.000000,0.400000,0.000000,0.000000,-0.517013,0.000000,0.000000,117.735804,-0.855978,2.556411,1.605321,0.000000,0.000000,0.000000,0.000000,0.000000,0.000000,0.000000,0.000000,0.000000,0.000000,0.000000,0.000000,0.000000,0.000000,0.000000,0.000000,0.000000,0.000000,0.000000,0.000000,0.000000,0.000000,0.000000,0.000000,2.147702,2.950634,0.000000,0.000000,,,,,,,,,,,,,,,,,,
1713381441.002275,,,,,,,,,,,,,,,,,,,,,,,,,,,,,,,,,,,,,,,,,,,,,,,,,,,,,,,,,,,,,,,,,,,,,,,,,,1713381441.000012,-9.643555,8.300781,73.608398,0.000000,0.000000,0.000000,1.153762,-0.084773,1.000996,0.871716,-0.037832,0.006086,-0.488512,4.124777,-1.510115,58.478372,
1713381441.005515,,,,,,,,,0.000000,0.000000,3.000000,0.180000,0.000000,0.000000,,,,,,,,,,,,,,,,,,,,,,,,,,,,,,,,,,,,,,,,,,,,,,,,,,,,,,,,,,,,,,,,,,,,,,,,,,,,,
1713381441.006490,0.000000,0.000000,3.000000,0.180000,0.000000,0.000000,,,,,,,,,,,,,,,,,,,,,,,,,,,,,,,,,,,,,,,,,,,,,,,,,,,,,,,,,,,,,,,,,,,,,,,,,,,,,,,,,,,,,
